21 $GPGGA,224754.00,3945.0773630,N,10513.2889229,W,4,30,0.5,1760.146,M,-15.954,M,2.0,0000*48 10:47:34.00 01/21/00 165 0
3         0.000        0.000 10:47:34.00 01/21/00          1           0          48   5
0   49687.276  48813.376 10:47:33.400 01/21/00   0
3         0.000        0.000 10:47:33.100 01/21/00         26           0          47   4
21 $GPGGA,224753.00,3945.0774404,N,10513.2886939,W,4,30,0.5,1760.128,M,-15.954,M,3.0,0000*41 10:47:33.00 01/21/00 139 0
0   50692.659  51146.426 10:47:32.400 01/21/00   0
21 $GPGGA,224752.00,3945.0778298,N,10513.2880111,W,4,29,0.5,1760.080,M,-15.954,M,2.0,0000*41 10:47:32.00 01/21/00 126 0
0       0.000  51448.422 10:47:31.400 01/21/00   0
21 $GPGGA,224751.00,3945.0782890,N,10513.2871988,W,4,28,0.5,1759.976,M,-15.954,M,3.0,0000*49 10:47:31.00 01/21/00 127 0
0   50385.460  50338.255 10:47:30.400 01/21/00   0
21 $GPGGA,224750.00,3945.0787636,N,10513.2863541,W,4,29,0.5,1759.890,M,-15.954,M,2.0,0000*4C 10:47:30.00 01/21/00 148 0
0   50220.706  50164.137 10:47:29.400 01/21/00   0
21 $GPGGA,224749.00,3945.0792560,N,10513.2854815,W,4,28,0.6,1759.857,M,-15.954,M,3.0,0000*40 10:47:29.00 01/21/00 129 0
0   50197.725  50184.821 10:47:28.400 01/21/00   0
21 $GPGGA,224748.00,3945.0797499,N,10513.2846155,W,4,26,0.5,1759.839,M,-15.954,M,2.0,0000*49 10:47:28.00 01/21/00 142 0
0   50224.741  50278.010 10:47:27.400 01/21/00   0
21 $GPGGA,224747.00,3945.0802713,N,10513.2837229,W,4,28,0.5,1759.780,M,-15.954,M,3.0,0000*48 10:47:27.00 01/21/00 144 0
0   50253.064  50275.724 10:47:26.400 01/21/00   0
21 $GPGGA,224746.00,3945.0807566,N,10513.2828139,W,4,27,0.6,1759.759,M,-15.954,M,2.0,0000*49 10:47:26.00 01/21/00 128 0
0   50257.366  50263.979 10:47:25.400 01/21/00   0
21 $GPGGA,224745.00,3945.0812260,N,10513.2818660,W,4,29,0.6,1759.719,M,-15.954,M,3.0,0000*4C 10:47:25.100 01/21/00 260 0
0   50258.184  50267.923 10:47:24.400 01/21/00   0
21 $GPGGA,224744.00,3945.0817231,N,10513.2809362,W,4,29,0.6,1759.674,M,-15.954,M,2.0,0000*40 10:47:24.00 01/21/00 124 0
0   50262.765  50272.164 10:47:23.400 01/21/00   0
21 $GPGGA,224743.00,3945.0822022,N,10513.2800279,W,4,30,0.6,1759.585,M,-15.954,M,3.0,0000*47 10:47:23.00 01/21/00 124 0
0   50258.484  50266.585 10:47:22.400 01/21/00   0
21 $GPGGA,224742.00,3945.0826724,N,10513.2791469,W,4,30,0.6,1759.503,M,-15.954,M,2.0,0000*4C 10:47:22.00 01/21/00 172 0
0   50253.013  50255.012 10:47:21.400 01/21/00   0
21 $GPGGA,224741.00,3945.0831515,N,10513.2782579,W,4,28,0.6,1759.409,M,-15.954,M,3.0,0000*48 10:47:21.100 01/21/00 263 0
0   50261.050  50265.459 10:47:20.400 01/21/00   0
21 $GPGGA,224740.00,3945.0836483,N,10513.2773485,W,4,28,0.6,1759.337,M,-15.955,M,2.0,0000*46 10:47:20.00 01/21/00 126 0
0   50264.967  50262.187 10:47:19.400 01/21/00   0
21 $GPGGA,224739.00,3945.0841708,N,10513.2764393,W,4,28,0.6,1759.277,M,-15.955,M,3.0,0000*4A 10:47:19.00 01/21/00 144 0
0   50264.123  50269.230 10:47:18.400 01/21/00   0
21 $GPGGA,224738.00,3945.0846768,N,10513.2754666,W,4,27,0.6,1759.252,M,-15.955,M,2.0,0000*4F 10:47:18.00 01/21/00 126 0
0   49885.306  50276.529 10:47:17.400 01/21/00   0
21 $GPGGA,224737.00,3945.0852284,N,10513.2745150,W,4,29,0.6,1759.232,M,-15.955,M,3.0,0000*49 10:47:17.00 01/21/00 127 0
0   50259.099  50261.464 10:47:16.400 01/21/00   0
21 $GPGGA,224736.00,3945.0857883,N,10513.2735946,W,4,28,0.6,1759.186,M,-15.955,M,2.0,0000*44 10:47:16.00 01/21/00 169 0
0   50256.410  50264.476 10:47:15.400 01/21/00   0
21 $GPGGA,224735.00,3945.0862988,N,10513.2727029,W,4,27,0.6,1759.090,M,-15.955,M,3.0,0000*40 10:47:15.00 01/21/00 127 0
0   50246.240  50258.564 10:47:14.400 01/21/00   0
21 $GPGGA,224734.00,3945.0867591,N,10513.2718015,W,4,29,0.6,1759.015,M,-15.955,M,2.0,0000*41 10:47:14.00 01/21/00 127 0
0   50122.544  50335.638 10:47:13.400 01/21/00   0
21 $GPGGA,224733.00,3945.0872092,N,10513.2708912,W,4,30,0.6,1758.910,M,-15.955,M,3.0,0000*4F 10:47:13.00 01/21/00 122 0
0       0.000  50173.369 10:47:12.400 01/21/00   0
21 $GPGGA,224732.00,3945.0876847,N,10513.2700088,W,4,30,0.6,1758.909,M,-15.955,M,2.0,0000*41 10:47:12.00 01/21/00 131 0
0   50081.964  50173.358 10:47:11.400 01/21/00   0
21 $GPGGA,224731.00,3945.0881261,N,10513.2691076,W,4,29,0.6,1758.908,M,-15.955,M,3.0,0000*44 10:47:11.00 01/21/00 135 0
0   50163.790  50148.682 10:47:10.400 01/21/00   0
21 $GPGGA,224730.00,3945.0885388,N,10513.2682801,W,4,29,0.6,1758.881,M,-15.955,M,2.0,0000*4C 10:47:10.00 01/21/00 170 0
0   50101.863  50076.844 10:47:09.400 01/21/00   0
21 $GPGGA,224729.00,3945.0889823,N,10513.2674676,W,4,27,0.6,1758.785,M,-15.955,M,3.0,0000*41 10:47:09.100 01/21/00 247 0
0   50011.014  49973.386 10:47:08.400 01/21/00   0
21 $GPGGA,224728.00,3945.0892950,N,10513.2668065,W,4,28,0.6,1758.760,M,-15.955,M,2.0,0000*43 10:47:08.00 01/21/00 132 0
0   49965.587  49928.409 10:47:07.400 01/21/00   0
3         0.000        0.000 10:47:07.200 01/21/00          4           0          46   4
21 $GPGGA,224727.00,3945.0895635,N,10513.2665724,W,4,27,0.6,1758.781,M,-15.955,M,3.0,0000*49 10:47:07.100 01/21/00 259 0
0   49951.108  49912.724 10:47:06.400 01/21/00   0
21 $GPGGA,224726.00,3945.0897552,N,10513.2663861,W,4,25,0.6,1758.756,M,-15.955,M,2.0,0000*49 10:47:06.100 01/21/00 275 0
0   49888.113  49838.440 10:47:05.400 01/21/00   0
21 $GPGGA,224725.00,3945.0900773,N,10513.2665598,W,4,25,0.6,1758.737,M,-15.955,M,3.0,0000*4F 10:47:05.100 01/21/00 256 0
0   49745.170  49660.245 10:47:04.400 01/21/00   0
21 $GPGGA,224724.00,3945.0900268,N,10513.2670851,W,4,29,0.6,1758.747,M,-15.955,M,2.0,0000*47 10:47:04.00 01/21/00 181 0
0   49785.168  49715.023 10:47:03.400 01/21/00   0
21 $GPGGA,224723.00,3945.0897255,N,10513.2675965,W,4,29,0.6,1758.783,M,-15.955,M,3.0,0000*4B 10:47:03.00 01/21/00 149 0
3         0.000        0.000 10:47:02.600 01/21/00         27           0          45   4
0   49915.632  49865.330 10:47:02.400 01/21/00   0
21 $GPGGA,224722.00,3945.0893639,N,10513.2682754,W,4,29,0.6,1758.826,M,-15.955,M,2.0,0000*45 10:47:02.100 01/21/00 305 0
0   50067.621  50041.256 10:47:01.400 01/21/00   0
21 $GPGGA,224721.00,3945.0889577,N,10513.2689990,W,4,30,0.5,1758.880,M,-15.955,M,3.0,0000*4F 10:47:01.00 01/21/00 140 0
0   50178.903  50166.297 10:47:00.400 01/21/00   0
21 $GPGGA,224720.00,3945.0885058,N,10513.2698052,W,4,30,0.6,1758.895,M,-15.955,M,2.0,0000*4B 10:47:00.00 01/21/00 132 0
0   50207.869  50198.670 10:46:59.400 01/21/00   0
21 $GPGGA,224719.00,3945.0880435,N,10513.2705845,W,4,30,0.6,1758.911,M,-15.955,M,3.0,0000*4C 10:46:59.00 01/21/00 140 0
0   50193.100  50165.296 10:46:58.400 01/21/00   0
21 $GPGGA,224718.00,3945.0875771,N,10513.2714045,W,4,31,0.6,1758.954,M,-15.955,M,2.0,0000*4D 10:46:58.00 01/21/00 196 0
0   50203.643  50162.126 10:46:57.400 01/21/00   0
21 $GPGGA,224717.00,3945.0871187,N,10513.2722469,W,4,30,0.6,1759.025,M,-15.955,M,3.0,0000*48 10:46:57.00 01/21/00 126 0
0   50230.347  50234.325 10:46:56.400 01/21/00   0
21 $GPGGA,224716.00,3945.0866571,N,10513.2730691,W,4,29,0.6,1759.073,M,-15.955,M,2.0,0000*4E 10:46:56.00 01/21/00 126 0
0   50241.207  50253.662 10:46:55.400 01/21/00   0
21 $GPGGA,224715.00,3945.0861595,N,10513.2739117,W,4,30,0.6,1759.136,M,-15.955,M,3.0,0000*49 10:46:55.100 01/21/00 293 0
0   50249.157  50261.603 10:46:54.400 01/21/00   0
21 $GPGGA,224714.00,3945.0857075,N,10513.2747346,W,4,30,0.6,1759.199,M,-15.955,M,2.0,0000*4D 10:46:54.100 01/21/00 310 0
0   50252.935  50261.806 10:46:53.400 01/21/00   0
21 $GPGGA,224713.00,3945.0852340,N,10513.2755938,W,4,30,0.6,1759.258,M,-15.955,M,3.0,0000*45 10:46:53.00 01/21/00 123 0
0   50257.764  50272.070 10:46:52.400 01/21/00   0
21 $GPGGA,224712.00,3945.0847747,N,10513.2764144,W,4,28,0.6,1759.335,M,-15.955,M,2.0,0000*40 10:46:52.00 01/21/00 143 0
0   50257.974  50268.884 10:46:51.400 01/21/00   0
21 $GPGGA,224711.00,3945.0843066,N,10513.2772481,W,4,30,0.6,1759.395,M,-15.955,M,3.0,0000*4A 10:46:51.00 01/21/00 152 0
0   50262.641  50278.695 10:46:50.400 01/21/00   0
21 $GPGGA,224710.00,3945.0838304,N,10513.2780769,W,4,28,0.6,1759.474,M,-15.954,M,2.0,0000*49 10:46:50.100 01/21/00 284 0
0   50265.679  50279.860 10:46:49.400 01/21/00   0
21 $GPGGA,224709.00,3945.0833830,N,10513.2788695,W,4,29,0.6,1759.511,M,-15.954,M,3.0,0000*4E 10:46:49.100 01/21/00 262 0
0   50251.585  50258.311 10:46:48.400 01/21/00   0
21 $GPGGA,224708.00,3945.0829161,N,10513.2796848,W,4,29,0.5,1759.568,M,-15.954,M,2.0,0000*44 10:46:48.100 01/21/00 307 0
0   50249.887  50256.311 10:46:47.400 01/21/00   0
21 $GPGGA,224707.00,3945.0824330,N,10513.2805157,W,4,31,0.5,1759.614,M,-15.954,M,3.0,0000*42 10:46:47.00 01/21/00 143 0
0   50259.180  50273.452 10:46:46.400 01/21/00   0
21 $GPGGA,224706.00,3945.0819268,N,10513.2813322,W,4,31,0.5,1759.653,M,-15.954,M,2.0,0000*44 10:46:46.100 01/21/00 198 0
0   50257.405  50276.059 10:46:45.400 01/21/00   0
21 $GPGGA,224705.00,3945.0814537,N,10513.2821626,W,4,30,0.6,1759.683,M,-15.954,M,3.0,0000*49 10:46:45.00 01/21/00 151 0
0   50250.488  50250.662 10:46:44.400 01/21/00   0
21 $GPGGA,224704.00,3945.0809854,N,10513.2830266,W,4,29,0.6,1759.722,M,-15.954,M,2.0,0000*4F 10:46:44.00 01/21/00 156 0
0   50252.625  50253.893 10:46:43.400 01/21/00   0
21 $GPGGA,224703.00,3945.0805298,N,10513.2839045,W,4,27,0.6,1759.760,M,-15.954,M,3.0,0000*4D 10:46:43.00 01/21/00 147 0
0   50248.464  50274.811 10:46:42.400 01/21/00   0
21 $GPGGA,224702.00,3945.0800668,N,10513.2847717,W,4,29,0.6,1759.806,M,-15.954,M,2.0,0000*4B 10:46:42.00 01/21/00 153 0
0   50222.903  50252.576 10:46:41.400 01/21/00   0
21 $GPGGA,224701.00,3945.0796180,N,10513.2856133,W,4,27,0.6,1759.848,M,-15.954,M,3.0,0000*4C 10:46:41.00 01/21/00 148 0
0   50200.646  50195.383 10:46:40.400 01/21/00   0
21 $GPGGA,224700.00,3945.0791828,N,10513.2864221,W,4,28,0.6,1759.910,M,-15.954,M,2.0,0000*42 10:46:40.100 01/21/00 211 0
0   50209.419  50169.062 10:46:39.400 01/21/00   0
21 $GPGGA,224659.00,3945.0787521,N,10513.2871929,W,4,29,0.6,1759.955,M,-15.954,M,3.0,0000*4A 10:46:39.00 01/21/00 145 0
0   50323.415  50288.899 10:46:38.400 01/21/00   0
21 $GPGGA,224658.00,3945.0783210,N,10513.2879863,W,4,28,0.6,1760.008,M,-15.954,M,2.0,0000*46 10:46:38.00 01/21/00 153 0
0   50721.306  51057.707 10:46:37.400 01/21/00   0
21 $GPGGA,224657.00,3945.0779451,N,10513.2886508,W,4,29,0.6,1760.034,M,-15.954,M,3.0,0000*40 10:46:37.00 01/21/00 148 0
0   51005.128  52047.617 10:46:36.400 01/21/00   0
21 $GPGGA,224656.00,3945.0777489,N,10513.2889801,W,4,29,0.5,1760.083,M,-15.954,M,2.0,0000*4F 10:46:36.00 01/21/00 157 0
3         0.000        0.000 10:46:35.600 01/21/00          6           0          44   4
0   50871.206  51833.659 10:46:35.400 01/21/00   0
21 $GPGGA,224655.00,3945.0776865,N,10513.2892848,W,4,29,0.6,1760.107,M,-15.954,M,3.0,0000*4B 10:46:35.00 01/21/00 143 0
0   50715.306  51578.993 10:46:34.400 01/21/00   0
21 $GPGGA,224654.00,3945.0775721,N,10513.2894588,W,4,29,0.6,1760.111,M,-15.954,M,2.0,0000*47 10:46:34.00 01/21/00 189 0
0   50510.000  50886.832 10:46:33.400 01/21/00   0
21 $GPGGA,224653.00,3945.0775813,N,10513.2895982,W,4,27,0.6,1760.128,M,-15.954,M,1.0,0000*4E 10:46:33.100 01/21/00 256 0
0   49803.176  48964.692 10:46:32.400 01/21/00   0
21 $GPGGA,224652.00,3945.0776529,N,10513.2895919,W,4,29,0.6,1760.111,M,-15.954,M,2.0,0000*4D 10:46:32.00 01/21/00 172 0
0   49709.421  49336.635 10:46:31.400 01/21/00   0
21 $GPGGA,224651.00,3945.0777152,N,10513.2895064,W,4,28,0.6,1760.087,M,-15.954,M,3.0,0000*4A 10:46:31.100 01/21/00 293 0
0   49928.778  49703.029 10:46:30.400 01/21/00   0
3         0.000        0.000 10:46:30.100 01/21/00         27           0          43   4
21 $GPGGA,224650.00,3945.0779347,N,10513.2890515,W,4,28,0.6,1760.079,M,-15.954,M,2.0,0000*45 10:46:30.00 01/21/00 159 0
0   50361.215  50445.122 10:46:29.400 01/21/00   0
21 $GPGGA,224649.00,3945.0782711,N,10513.2883898,W,4,28,0.6,1760.063,M,-15.954,M,3.0,0000*4E 10:46:29.00 01/21/00 153 0
0   50510.187  50625.689 10:46:28.400 01/21/00   0
21 $GPGGA,224648.00,3945.0786642,N,10513.2876347,W,4,28,0.6,1760.003,M,-15.954,M,2.0,0000*48 10:46:28.00 01/21/00 194 0
0   50308.624  50255.489 10:46:27.400 01/21/00   0
21 $GPGGA,224647.00,3945.0791073,N,10513.2867883,W,4,29,0.6,1759.893,M,-15.954,M,3.0,0000*4D 10:46:27.00 01/21/00 131 0
0   50211.652  50178.347 10:46:26.400 01/21/00   0
21 $GPGGA,224646.00,3945.0796048,N,10513.2859399,W,4,26,0.6,1759.851,M,-15.954,M,2.0,0000*4E 10:46:26.00 01/21/00 152 0
0   50213.616  50210.363 10:46:25.400 01/21/00   0
21 $GPGGA,224645.00,3945.0800892,N,10513.2850872,W,4,28,0.6,1759.831,M,-15.954,M,3.0,0000*4C 10:46:25.00 01/21/00 147 0
0   50240.495  50257.256 10:46:24.400 01/21/00   0
21 $GPGGA,224644.00,3945.0805667,N,10513.2842402,W,4,28,0.6,1759.783,M,-15.954,M,2.0,0000*43 10:46:24.00 01/21/00 153 0
0   50265.445  50286.894 10:46:23.400 01/21/00   0
21 $GPGGA,224643.00,3945.0810704,N,10513.2833961,W,4,29,0.5,1759.712,M,-15.954,M,3.0,0000*41 10:46:23.00 01/21/00 148 0
0   50274.193  50318.019 10:46:22.400 01/21/00   0
21 $GPGGA,224642.00,3945.0815340,N,10513.2825575,W,4,30,0.5,1759.635,M,-15.954,M,2.0,0000*42 10:46:22.00 01/21/00 197 0
0   50256.642  50242.347 10:46:21.400 01/21/00   0
21 $GPGGA,224641.00,3945.0819926,N,10513.2817030,W,4,27,0.6,1759.590,M,-15.954,M,3.0,0000*4A 10:46:21.100 01/21/00 271 0
0   50263.387  50265.959 10:46:20.400 01/21/00   0
21 $GPGGA,224640.00,3945.0824665,N,10513.2808246,W,4,28,0.6,1759.591,M,-15.954,M,2.0,0000*4F 10:46:20.100 01/21/00 281 0
0   50268.995  50289.990 10:46:19.400 01/21/00   0
21 $GPGGA,224639.00,3945.0829576,N,10513.2799408,W,4,27,0.6,1759.563,M,-15.954,M,3.0,0000*45 10:46:19.100 01/21/00 260 0
0   50253.608  50249.461 10:46:18.400 01/21/00   0
21 $GPGGA,224638.00,3945.0834292,N,10513.2790576,W,4,28,0.6,1759.483,M,-15.954,M,2.0,0000*45 10:46:18.00 01/21/00 154 0
0   50261.583  50263.053 10:46:17.400 01/21/00   0
21 $GPGGA,224637.00,3945.0838987,N,10513.2781927,W,4,28,0.6,1759.413,M,-15.954,M,3.0,0000*49 10:46:17.00 01/21/00 146 0
0   50290.992  50340.124 10:46:16.400 01/21/00   0
21 $GPGGA,224636.00,3945.0843593,N,10513.2773764,W,4,27,0.6,1759.337,M,-15.955,M,2.0,0000*47 10:46:16.00 01/21/00 149 0
0   50268.998  50283.725 10:46:15.400 01/21/00   0
21 $GPGGA,224635.00,3945.0848129,N,10513.2765490,W,4,26,0.6,1759.300,M,-15.955,M,3.0,0000*41 10:46:15.100 01/21/00 255 0
0   50264.994  50274.295 10:46:14.400 01/21/00   0
21 $GPGGA,224634.00,3945.0852642,N,10513.2757560,W,4,28,0.6,1759.279,M,-15.955,M,2.0,0000*4E 10:46:14.100 01/21/00 284 0
0   50261.037  50263.284 10:46:13.400 01/21/00   0
21 $GPGGA,224633.00,3945.0856993,N,10513.2749560,W,4,29,0.6,1759.245,M,-15.955,M,3.0,0000*4E 10:46:13.100 01/21/00 275 0
0   50257.243  50267.744 10:46:12.400 01/21/00   0
21 $GPGGA,224632.00,3945.0861493,N,10513.2741063,W,4,30,0.6,1759.158,M,-15.955,M,2.0,0000*4E 10:46:12.00 01/21/00 157 0
0   50252.862  50270.414 10:46:11.400 01/21/00   0
21 $GPGGA,224631.00,3945.0866327,N,10513.2732236,W,4,28,0.6,1759.040,M,-15.955,M,3.0,0000*44 10:46:11.00 01/21/00 155 0
0   50238.848  50247.895 10:46:10.400 01/21/00   0
21 $GPGGA,224630.00,3945.0870625,N,10513.2723299,W,4,28,0.6,1758.972,M,-15.955,M,2.0,0000*48 10:46:10.00 01/21/00 181 0
0   50224.133  50211.741 10:46:09.400 01/21/00   0
21 $GPGGA,224629.00,3945.0875648,N,10513.2714539,W,4,29,0.6,1758.977,M,-15.955,M,3.0,0000*42 10:46:09.00 01/21/00 152 0
0   50190.611  50115.854 10:46:08.400 01/21/00   0
21 $GPGGA,224628.00,3945.0880630,N,10513.2705847,W,4,30,0.6,1758.934,M,-15.955,M,2.0,0000*4C 10:46:08.00 01/21/00 164 0
0   50230.013  50215.606 10:46:07.400 01/21/00   0
21 $GPGGA,224627.00,3945.0885773,N,10513.2696861,W,4,29,0.6,1758.911,M,-15.955,M,3.0,0000*41 10:46:07.00 01/21/00 144 0
0   50256.318  50246.883 10:46:06.400 01/21/00   0
21 $GPGGA,224626.00,3945.0890799,N,10513.2688187,W,4,28,0.6,1758.861,M,-15.955,M,2.0,0000*48 10:46:06.00 01/21/00 156 0
0   50180.756  50168.482 10:46:05.400 01/21/00   0
21 $GPGGA,224625.00,3945.0895763,N,10513.2680068,W,4,28,0.6,1758.784,M,-15.955,M,3.0,0000*46 10:46:05.100 01/21/00 276 0
0   49985.051  49918.231 10:46:04.400 01/21/00   0
21 $GPGGA,224624.00,3945.0899858,N,10513.2673505,W,4,25,0.6,1758.707,M,-15.955,M,2.0,0000*49 10:46:04.100 01/21/00 310 0
0   49887.495  49821.289 10:46:03.400 01/21/00   0
3         0.000        0.000 10:46:03.200 01/21/00          4           0          42   4
21 $GPGGA,224623.00,3945.0901294,N,10513.2671076,W,4,24,0.7,1758.785,M,-15.955,M,3.0,0000*4C 10:46:03.00 01/21/00 156 0
0   49868.381  49798.776 10:46:02.400 01/21/00   0
21 $GPGGA,224622.00,3945.0902347,N,10513.2670283,W,4,28,0.6,1758.743,M,-15.955,M,2.0,0000*4E 10:46:02.00 01/21/00 160 0
0   49797.617  49724.809 10:46:01.400 01/21/00   0
21 $GPGGA,224621.00,3945.0904018,N,10513.2671695,W,4,27,0.6,1758.725,M,-15.955,M,3.0,0000*4E 10:46:01.00 01/21/00 158 0
0   49648.102  49545.479 10:46:00.400 01/21/00   0
21 $GPGGA,224620.00,3945.0903799,N,10513.2676291,W,4,27,0.6,1758.722,M,-15.955,M,2.0,0000*47 10:46:00.00 01/21/00 157 0
0   49717.795  49620.011 10:45:59.400 01/21/00   0
21 $GPGGA,224619.00,3945.0900735,N,10513.2682456,W,4,29,0.6,1758.770,M,-15.955,M,3.0,0000*46 10:45:59.00 01/21/00 142 0
3         0.000        0.000 10:45:58.900 01/21/00         25           0          41   4
0   49970.218  49918.993 10:45:58.400 01/21/00   0
21 $GPGGA,224618.00,3945.0896687,N,10513.2689900,W,4,28,0.6,1758.815,M,-15.955,M,2.0,0000*48 10:45:58.00 01/21/00 177 0
0   50242.965  50248.453 10:45:57.400 01/21/00   0
21 $GPGGA,224617.00,3945.0891821,N,10513.2697801,W,4,31,0.6,1758.853,M,-15.955,M,3.0,0000*46 10:45:57.00 01/21/00 134 0
0   50332.719  50355.537 10:45:56.400 01/21/00   0
21 $GPGGA,224616.00,3945.0887329,N,10513.2705990,W,4,26,0.6,1758.917,M,-15.955,M,2.0,0000*46 10:45:56.00 01/21/00 132 0
0   50278.465  50279.885 10:45:55.400 01/21/00   0
21 $GPGGA,224615.00,3945.0882593,N,10513.2714401,W,4,29,0.6,1758.954,M,-15.955,M,3.0,0000*4B 10:45:55.00 01/21/00 127 0
0   50220.047  50204.520 10:45:54.400 01/21/00   0
21 $GPGGA,224614.00,3945.0877788,N,10513.2722721,W,4,31,0.6,1759.017,M,-15.955,M,2.0,0000*4B 10:45:54.00 01/21/00 135 0
0   50216.572  50222.407 10:45:53.400 01/21/00   0
21 $GPGGA,224613.00,3945.0873199,N,10513.2731456,W,4,29,0.6,1759.073,M,-15.955,M,3.0,0000*45 10:45:53.00 01/21/00 131 0
0   50220.487  50208.722 10:45:52.400 01/21/00   0
21 $GPGGA,224612.00,3945.0868337,N,10513.2740255,W,4,29,0.6,1759.124,M,-15.955,M,2.0,0000*49 10:45:52.00 01/21/00 197 0
0   50237.312  50252.134 10:45:51.400 01/21/00   0
21 $GPGGA,224611.00,3945.0863536,N,10513.2749023,W,4,29,0.6,1759.198,M,-15.955,M,3.0,0000*4A 10:45:51.100 01/21/00 268 0
0   50247.286  50261.802 10:45:50.400 01/21/00   0
21 $GPGGA,224610.00,3945.0858777,N,10513.2757908,W,4,29,0.6,1759.263,M,-15.955,M,2.0,0000*4D 10:45:50.00 01/21/00 135 0
0   50252.949  50259.522 10:45:49.400 01/21/00   0
21 $GPGGA,224609.00,3945.0854002,N,10513.2766699,W,4,28,0.6,1759.320,M,-15.955,M,3.0,0000*4F 10:45:49.00 01/21/00 156 0
0   50259.779  50279.656 10:45:48.400 01/21/00   0
21 $GPGGA,224608.00,3945.0848759,N,10513.2775833,W,4,29,0.6,1759.389,M,-15.955,M,2.0,0000*45 10:45:48.00 01/21/00 156 0
0   50256.041  50264.268 10:45:47.400 01/21/00   0
21 $GPGGA,224607.00,3945.0843506,N,10513.2784933,W,4,28,0.6,1759.467,M,-15.954,M,3.0,0000*40 10:45:47.00 01/21/00 144 0
0   50283.230  50364.833 10:45:46.400 01/21/00   0
21 $GPGGA,224606.00,3945.0838436,N,10513.2794105,W,4,28,0.6,1759.500,M,-15.954,M,2.0,0000*42 10:45:46.00 01/21/00 177 0
0   50251.377  50253.501 10:45:45.400 01/21/00   0
21 $GPGGA,224605.00,3945.0833143,N,10513.2803399,W,4,27,0.6,1759.546,M,-15.954,M,3.0,0000*47 10:45:45.00 01/21/00 136 0
0   50256.466  50267.509 10:45:44.400 01/21/00   0
21 $GPGGA,224604.00,3945.0827823,N,10513.2813290,W,4,29,0.6,1759.613,M,-15.954,M,2.0,0000*49 10:45:44.00 01/21/00 152 0
0   50264.381  50280.933 10:45:43.400 01/21/00   0
21 $GPGGA,224603.00,3945.0822345,N,10513.2823121,W,4,29,0.6,1759.657,M,-15.954,M,3.0,0000*4B 10:45:43.00 01/21/00 134 0
0   50259.844  50251.324 10:45:42.400 01/21/00   0
21 $GPGGA,224602.00,3945.0816637,N,10513.2832865,W,4,31,0.5,1759.715,M,-15.954,M,2.0,0000*48 10:45:42.00 01/21/00 143 0
0   50276.990  50356.031 10:45:41.400 01/21/00   0
21 $GPGGA,224601.00,3945.0810781,N,10513.2842609,W,4,30,0.6,1759.748,M,-15.954,M,3.0,0000*49 10:45:41.00 01/21/00 140 0
0   50263.305  50293.018 10:45:40.400 01/21/00   0
21 $GPGGA,224600.00,3945.0805454,N,10513.2852343,W,4,28,0.6,1759.825,M,-15.954,M,2.0,0000*41 10:45:40.00 01/21/00 174 0
0   50239.812  50257.716 10:45:39.400 01/21/00   0
21 $GPGGA,224559.00,3945.0800741,N,10513.2860820,W,4,27,0.6,1759.880,M,-15.954,M,3.0,0000*42 10:45:39.00 01/21/00 161 0
0   50215.303  50222.802 10:45:38.400 01/21/00   0
21 $GPGGA,224558.00,3945.0796586,N,10513.2868470,W,4,27,0.6,1759.934,M,-15.954,M,2.0,0000*44 10:45:38.00 01/21/00 157 0
0   50204.067  50184.497 10:45:37.400 01/21/00   0
21 $GPGGA,224557.00,3945.0792208,N,10513.2876299,W,4,27,0.6,1759.985,M,-15.954,M,3.0,0000*4B 10:45:37.00 01/21/00 138 0
0   50252.401  50213.365 10:45:36.400 01/21/00   0
21 $GPGGA,224556.00,3945.0787553,N,10513.2884351,W,4,27,0.6,1760.060,M,-15.954,M,2.0,0000*46 10:45:36.00 01/21/00 159 0
0   50396.879  50411.089 10:45:35.400 01/21/00   0
21 $GPGGA,224555.00,3945.0783509,N,10513.2891349,W,4,27,0.6,1760.057,M,-15.954,M,3.0,0000*46 10:45:35.00 01/21/00 153 0
0   50444.996  50566.790 10:45:34.400 01/21/00   0
21 $GPGGA,224554.00,3945.0780985,N,10513.2896411,W,4,28,0.6,1760.107,M,-15.954,M,2.0,0000*4B 10:45:34.100 01/21/00 202 0
3         0.000        0.000 10:45:33.500 01/21/00          7           0          40   4
0   50423.703  50581.176 10:45:33.400 01/21/00   0
21 $GPGGA,224553.00,3945.0780493,N,10513.2897378,W,4,29,0.6,1760.099,M,-15.954,M,3.0,0000*49 10:45:33.00 01/21/00 139 0
0   50323.611  50383.610 10:45:32.400 01/21/00   0
21 $GPGGA,224552.00,3945.0780190,N,10513.2898838,W,4,28,0.6,1760.096,M,-15.954,M,2.0,0000*41 10:45:32.00 01/21/00 155 0
0   49862.490  49434.199 10:45:31.400 01/21/00   0
21 $GPGGA,224551.00,3945.0780313,N,10513.2899636,W,4,27,0.6,1760.094,M,-15.954,M,3.0,0000*46 10:45:31.00 01/21/00 130 0
0   49833.139  49661.187 10:45:30.400 01/21/00   0
21 $GPGGA,224550.00,3945.0780980,N,10513.2899378,W,4,28,0.6,1760.081,M,-15.954,M,2.0,0000*42 10:45:30.00 01/21/00 132 0
0   49942.865  49895.203 10:45:29.400 01/21/00   0
21 $GPGGA,224549.00,3945.0780946,N,10513.2899243,W,4,28,0.6,1760.097,M,-15.954,M,3.0,0000*4F 10:45:29.00 01/21/00 136 0
0   50001.392  49936.426 10:45:28.400 01/21/00   0
21 $GPGGA,224548.00,3945.0782116,N,10513.2897748,W,4,28,0.6,1760.094,M,-15.954,M,2.0,0000*43 10:45:28.100 01/21/00 202 0
0   50085.756  50034.577 10:45:27.400 01/21/00   0
21 $GPGGA,224547.00,3945.0783957,N,10513.2892330,W,4,28,0.6,1760.033,M,-15.954,M,3.0,0000*42 10:45:27.00 01/21/00 131 0
3         0.000        0.000 10:45:27.00 01/21/00         26           0          39   4
0   50269.477  50267.207 10:45:26.400 01/21/00   0
21 $GPGGA,224546.00,3945.0787738,N,10513.2885455,W,4,27,0.6,1759.982,M,-15.954,M,2.0,0000*45 10:45:26.00 01/21/00 141 0
0   50292.479  50257.363 10:45:25.400 01/21/00   0
21 $GPGGA,224545.00,3945.0791963,N,10513.2877354,W,4,28,0.6,1759.960,M,-15.954,M,3.0,0000*48 10:45:25.00 01/21/00 134 0
0   50224.627  50195.386 10:45:24.400 01/21/00   0
21 $GPGGA,224544.00,3945.0796851,N,10513.2868843,W,4,28,0.6,1759.924,M,-15.954,M,2.0,0000*4C 10:45:24.00 01/21/00 129 0
0   50212.554  50218.953 10:45:23.400 01/21/00   0
21 $GPGGA,224543.00,3945.0801789,N,10513.2860275,W,4,28,0.6,1759.841,M,-15.954,M,3.0,0000*44 10:45:23.00 01/21/00 128 0
0   50236.044  50252.389 10:45:22.400 01/21/00   0
21 $GPGGA,224542.00,3945.0806607,N,10513.2851629,W,4,27,0.6,1759.728,M,-15.954,M,2.0,0000*44 10:45:22.00 01/21/00 144 0
0   50170.095  50270.795 10:45:21.400 01/21/00   0
21 $GPGGA,224541.00,3945.0811312,N,10513.2843036,W,4,27,0.6,1759.677,M,-15.954,M,3.0,0000*41 10:45:21.00 01/21/00 131 0
0       0.000  50289.890 10:45:20.400 01/21/00   0
21 $GPGGA,224540.00,3945.0816346,N,10513.2834332,W,4,30,0.5,1759.693,M,-15.954,M,2.0,0000*4F 10:45:20.00 01/21/00 131 0
0   50286.202  50273.427 10:45:19.400 01/21/00   0
21 $GPGGA,224539.00,3945.0821201,N,10513.2825502,W,4,28,0.5,1759.657,M,-15.954,M,3.0,0000*42 10:45:19.00 01/21/00 138 0
0   50222.976  50265.897 10:45:18.400 01/21/00   0
21 $GPGGA,224538.00,3945.0825723,N,10513.2816598,W,4,28,0.6,1759.621,M,-15.954,M,2.0,0000*42 10:45:18.00 01/21/00 159 0
0   50267.945  50278.257 10:45:17.400 01/21/00   0
21 $GPGGA,224537.00,3945.0829969,N,10513.2807922,W,4,29,0.6,1759.543,M,-15.954,M,3.0,0000*4B 10:45:17.00 01/21/00 135 0
0   50265.151  50282.048 10:45:16.400 01/21/00   0
21 $GPGGA,224536.00,3945.0834655,N,10513.2799555,W,4,29,0.5,1759.476,M,-15.954,M,2.0,0000*47 10:45:16.00 01/21/00 197 0
0   50250.082  50247.068 10:45:15.400 01/21/00   0
21 $GPGGA,224535.00,3945.0839764,N,10513.2791210,W,4,27,0.6,1759.411,M,-15.954,M,3.0,0000*49 10:45:15.100 01/21/00 268 0
0   50220.321  50287.810 10:45:14.400 01/21/00   0
21 $GPGGA,224534.00,3945.0844319,N,10513.2782591,W,4,27,0.6,1759.362,M,-15.954,M,2.0,0000*42 10:45:14.100 01/21/00  14 0
0   50269.054  50217.669 10:45:13.400 01/21/00   0
21 $GPGGA,224533.00,3945.0848966,N,10513.2774203,W,4,27,0.6,1759.354,M,-15.955,M,3.0,0000*4B 10:45:13.00 01/21/00 122 0
0   50252.246  50249.297 10:45:12.400 01/21/00   0
21 $GPGGA,224532.00,3945.0853797,N,10513.2766019,W,4,27,0.6,1759.288,M,-15.955,M,2.0,0000*4B 10:45:12.100 01/21/00 272 0
0   50266.410  50282.809 10:45:11.400 01/21/00   0
21 $GPGGA,224531.00,3945.0858701,N,10513.2757962,W,4,29,0.6,1759.215,M,-15.955,M,3.0,0000*40 10:45:11.00 01/21/00 135 0
0   50254.569  50254.579 10:45:10.400 01/21/00   0
21 $GPGGA,224530.00,3945.0863438,N,10513.2749752,W,4,29,0.6,1759.141,M,-15.955,M,2.0,0000*41 10:45:10.100 01/21/00 200 0
0   50246.399  50246.635 10:45:09.400 01/21/00   0
21 $GPGGA,224529.00,3945.0868039,N,10513.2741309,W,4,30,0.6,1759.052,M,-15.955,M,3.0,0000*4F 10:45:09.00 01/21/00 131 0
0   50230.149  50218.969 10:45:08.400 01/21/00   0
21 $GPGGA,224528.00,3945.0872842,N,10513.2733124,W,4,30,0.6,1759.022,M,-15.955,M,2.0,0000*4F 10:45:08.00 01/21/00 134 0
0   50220.198  50216.811 10:45:07.400 01/21/00   0
21 $GPGGA,224527.00,3945.0877736,N,10513.2724816,W,4,30,0.6,1758.981,M,-15.955,M,3.0,0000*47 10:45:07.00 01/21/00 152 0
0   50014.282  50225.614 10:45:06.400 01/21/00   0
21 $GPGGA,224526.00,3945.0882632,N,10513.2716465,W,4,29,0.6,1758.927,M,-15.955,M,2.0,0000*45 10:45:06.00 01/21/00 156 0
0   50269.939  50279.153 10:45:05.400 01/21/00   0
21 $GPGGA,224525.00,3945.0887489,N,10513.2707551,W,4,28,0.6,1758.899,M,-15.955,M,3.0,0000*43 10:45:05.00 01/21/00 131 0
0   50369.524  50414.726 10:45:04.400 01/21/00   0
21 $GPGGA,224524.00,3945.0892300,N,10513.2698801,W,4,27,0.6,1758.858,M,-15.955,M,2.0,0000*4C 10:45:04.00 01/21/00 177 0
0   50471.318  50671.912 10:45:03.400 01/21/00   0
21 $GPGGA,224523.00,3945.0897451,N,10513.2689704,W,4,28,0.6,1758.808,M,-15.955,M,3.0,0000*4C 10:45:03.00 01/21/00 163 0
0   49892.853  50306.045 10:45:02.400 01/21/00   0
21 $GPGGA,224522.00,3945.0902267,N,10513.2681119,W,4,25,0.6,1758.724,M,-15.955,M,2.0,0000*4C 10:45:02.100 01/21/00 277 0
0       0.000  49832.752 10:45:01.400 01/21/00   0
21 $GPGGA,224521.00,3945.0905381,N,10513.2675856,W,4,26,0.6,1758.738,M,-15.955,M,3.0,0000*47 10:45:01.00 01/21/00 156 0
3         0.000        0.000 10:45:00.400 01/21/00          5           0          38   4
0   49863.757  49756.244 10:45:00.400 01/21/00   0
21 $GPGGA,224520.00,3945.0905797,N,10513.2675206,W,4,26,0.6,1758.738,M,-15.955,M,2.0,0000*4B 10:45:00.100 01/21/00 290 0
0   49820.373  49717.472 10:44:59.400 01/21/00   0
21 $GPGGA,224519.00,3945.0907097,N,10513.2674370,W,4,25,0.6,1758.730,M,-15.955,M,3.0,0000*4F 10:44:59.00 01/21/00 161 0
0   49703.178  49609.192 10:44:58.400 01/21/00   0
21 $GPGGA,224518.00,3945.0908636,N,10513.2674795,W,4,27,0.6,1758.694,M,-15.955,M,2.0,0000*4F 10:44:58.00 01/21/00 184 0
0   49476.146  49305.285 10:44:57.400 01/21/00   0
21 $GPGGA,224517.00,3945.0908842,N,10513.2679931,W,4,26,0.6,1758.712,M,-15.955,M,3.0,0000*4F 10:44:57.00 01/21/00 140 0
0   49505.373  49312.273 10:44:56.400 01/21/00   0
21 $GPGGA,224516.00,3945.0905905,N,10513.2685792,W,4,29,0.6,1758.769,M,-15.955,M,2.0,0000*47 10:44:56.00 01/21/00 159 0
3         0.000        0.000 10:44:55.700 01/21/00         25           0          37   4
0   49906.734  49837.247 10:44:55.400 01/21/00   0
21 $GPGGA,224515.00,3945.0901880,N,10513.2692764,W,4,27,0.6,1758.791,M,-15.955,M,3.0,0000*4B 10:44:55.00 01/21/00 127 0
0   50462.933  50640.720 10:44:54.400 01/21/00   0
21 $GPGGA,224514.00,3945.0897514,N,10513.2700768,W,4,28,0.6,1758.858,M,-15.955,M,2.0,0000*46 10:44:54.00 01/21/00 155 0
0   50662.601  50894.723 10:44:53.400 01/21/00   0
21 $GPGGA,224513.00,3945.0892978,N,10513.2709126,W,4,29,0.6,1758.865,M,-15.955,M,3.0,0000*49 10:44:53.00 01/21/00 144 0
0   50448.736  50502.842 10:44:52.400 01/21/00   0
21 $GPGGA,224512.00,3945.0888277,N,10513.2717506,W,4,28,0.6,1758.932,M,-15.955,M,2.0,0000*4D 10:44:52.100 01/21/00 199 0
0   50302.886  50324.411 10:44:51.400 01/21/00   0
21 $GPGGA,224511.00,3945.0883488,N,10513.2726235,W,4,28,0.6,1759.002,M,-15.955,M,3.0,0000*4C 10:44:51.00 01/21/00 135 0
0   50235.243  50235.636 10:44:50.400 01/21/00   0
21 $GPGGA,224510.00,3945.0878706,N,10513.2735049,W,4,29,0.6,1759.034,M,-15.955,M,2.0,0000*42 10:44:50.00 01/21/00 134 0
0   50222.209  50227.371 10:44:49.400 01/21/00   0
21 $GPGGA,224509.00,3945.0873715,N,10513.2743838,W,4,27,0.6,1759.087,M,-15.955,M,3.0,0000*4B 10:44:49.00 01/21/00 134 0
0   50224.295  50225.686 10:44:48.400 01/21/00   0
21 $GPGGA,224508.00,3945.0868508,N,10513.2752560,W,4,28,0.6,1759.137,M,-15.955,M,2.0,0000*4A 10:44:48.00 01/21/00 148 0
0   50239.999  50242.916 10:44:47.400 01/21/00   0
21 $GPGGA,224507.00,3945.0863277,N,10513.2761339,W,4,28,0.6,1759.174,M,-15.955,M,3.0,0000*4D 10:44:47.00 01/21/00 138 0
0   50253.313  50262.314 10:44:46.400 01/21/00   0
21 $GPGGA,224506.00,3945.0857950,N,10513.2770462,W,4,29,0.6,1759.257,M,-15.955,M,2.0,0000*4E 10:44:46.00 01/21/00 149 0
0   50262.959  50279.793 10:44:45.400 01/21/00   0
21 $GPGGA,224505.00,3945.0852578,N,10513.2779736,W,4,25,0.6,1759.335,M,-15.954,M,3.0,0000*4C 10:44:45.00 01/21/00 139 0
0   50247.398  50219.199 10:44:44.400 01/21/00   0
21 $GPGGA,224504.00,3945.0847255,N,10513.2789294,W,4,27,0.6,1759.407,M,-15.954,M,2.0,0000*46 10:44:44.00 01/21/00 160 0
0   50267.931  50276.284 10:44:43.400 01/21/00   0
21 $GPGGA,224503.00,3945.0842096,N,10513.2798755,W,4,26,0.6,1759.469,M,-15.954,M,3.0,0000*49 10:44:43.00 01/21/00 153 0
0   50251.102  50252.698 10:44:42.400 01/21/00   0
21 $GPGGA,224502.00,3945.0836657,N,10513.2808047,W,4,30,0.6,1759.521,M,-15.954,M,2.0,0000*49 10:44:42.00 01/21/00 159 0
0   50255.172  50277.420 10:44:41.400 01/21/00   0
21 $GPGGA,224501.00,3945.0831134,N,10513.2817371,W,4,29,0.6,1759.571,M,-15.954,M,3.0,0000*4B 10:44:41.00 01/21/00 148 0
0   50265.593  50268.849 10:44:40.400 01/21/00   0
21 $GPGGA,224500.00,3945.0825782,N,10513.2826693,W,4,30,0.6,1759.617,M,-15.954,M,2.0,0000*45 10:44:40.100 01/21/00 201 0
0   50308.198  50310.794 10:44:39.400 01/21/00   0
21 $GPGGA,224459.00,3945.0820671,N,10513.2836191,W,4,30,0.6,1759.650,M,-15.954,M,3.0,0000*46 10:44:39.00 01/21/00 152 0
0   50287.098  50272.103 10:44:38.400 01/21/00   0
21 $GPGGA,224458.00,3945.0815126,N,10513.2845838,W,4,31,0.5,1759.703,M,-15.954,M,2.0,0000*4E 10:44:38.00 01/21/00 151 0
0   50266.791  50276.943 10:44:37.400 01/21/00   0
21 $GPGGA,224457.00,3945.0809683,N,10513.2855677,W,4,27,0.6,1759.761,M,-15.954,M,3.0,0000*41 10:44:37.00 01/21/00 153 0
0   50250.640  50270.252 10:44:36.400 01/21/00   0
21 $GPGGA,224456.00,3945.0804419,N,10513.2865499,W,4,27,0.6,1759.820,M,-15.954,M,2.0,0000*46 10:44:36.00 01/21/00 155 0
0   50221.374  50231.104 10:44:35.400 01/21/00   0
21 $GPGGA,224455.00,3945.0799019,N,10513.2874921,W,4,28,0.6,1759.904,M,-15.954,M,3.0,0000*4D 10:44:35.00 01/21/00 155 0
0   50206.850  50193.717 10:44:34.400 01/21/00   0
21 $GPGGA,224454.00,3945.0793826,N,10513.2884597,W,4,27,0.6,1759.963,M,-15.954,M,2.0,0000*43 10:44:34.100 01/21/00 203 0
0   50238.256  50214.133 10:44:33.400 01/21/00   0
21 $GPGGA,224453.00,3945.0789613,N,10513.2892955,W,4,26,0.6,1760.003,M,-15.954,M,3.0,0000*47 10:44:33.00 01/21/00 144 0
0   50257.078  50248.324 10:44:32.400 01/21/00   0
21 $GPGGA,224452.00,3945.0786287,N,10513.2899336,W,4,26,0.6,1760.041,M,-15.954,M,2.0,0000*43 10:44:32.00 01/21/00 160 0
0   50237.029  50239.387 10:44:31.400 01/21/00   0
21 $GPGGA,224451.00,3945.0784418,N,10513.2902077,W,4,27,0.6,1760.101,M,-15.954,M,3.0,0000*42 10:44:31.00 01/21/00 159 0
3         0.000        0.000 10:44:30.700 01/21/00          5           0          36   4
0   50224.427  50227.127 10:44:30.400 01/21/00   0
21 $GPGGA,224450.00,3945.0784385,N,10513.2903044,W,4,27,0.6,1760.093,M,-15.954,M,2.0,0000*4A 10:44:30.00 01/21/00 164 0
0   50187.615  50172.366 10:44:29.400 01/21/00   0
21 $GPGGA,224449.00,3945.0784145,N,10513.2904436,W,4,28,0.5,1760.086,M,-15.954,M,3.0,0000*43 10:44:29.00 01/21/00 173 0
0   50028.044  49941.137 10:44:28.400 01/21/00   0
21 $GPGGA,224448.00,3945.0784286,N,10513.2904720,W,4,26,0.6,1760.083,M,-15.954,M,2.0,0000*43 10:44:28.00 01/21/00 152 0
0   50026.764  49982.149 10:44:27.400 01/21/00   0
21 $GPGGA,224447.00,3945.0784954,N,10513.2904045,W,4,28,0.6,1760.076,M,-15.954,M,3.0,0000*49 10:44:27.00 01/21/00 159 0
0   50115.168  50103.423 10:44:26.400 01/21/00   0
21 $GPGGA,224446.00,3945.0785872,N,10513.2902333,W,4,29,0.5,1760.061,M,-15.954,M,2.0,0000*4D 10:44:26.00 01/21/00 172 0
3         0.000        0.000 10:44:25.500 01/21/00         29           0          35   4
0   50095.848  50123.196 10:44:25.400 01/21/00   0
21 $GPGGA,224445.00,3945.0787538,N,10513.2897695,W,4,29,0.6,1760.036,M,-15.954,M,3.0,0000*4B 10:44:25.00 01/21/00 134 0
0   50198.599  50198.617 10:44:24.400 01/21/00   0
21 $GPGGA,224444.00,3945.0790526,N,10513.2892486,W,4,29,0.6,1759.996,M,-15.954,M,2.0,0000*4E 10:44:24.00 01/21/00 137 0
0   50134.783  50256.164 10:44:23.400 01/21/00   0
21 $GPGGA,224443.00,3945.0793908,N,10513.2885794,W,4,29,0.6,1759.965,M,-15.954,M,3.0,0000*41 10:44:23.00 01/21/00 156 0
0       0.000  50216.227 10:44:22.400 01/21/00   0
21 $GPGGA,224442.00,3945.0798044,N,10513.2878773,W,4,30,0.5,1759.858,M,-15.954,M,2.0,0000*44 10:44:22.100 01/21/00 206 0
0   50205.363  50176.529 10:44:21.400 01/21/00   0
21 $GPGGA,224441.00,3945.0802351,N,10513.2870758,W,4,29,0.5,1759.838,M,-15.954,M,3.0,0000*42 10:44:21.00 01/21/00 156 0
0   50112.080  50210.577 10:44:20.400 01/21/00   0
21 $GPGGA,224440.00,3945.0806960,N,10513.2862198,W,4,31,0.5,1759.803,M,-15.954,M,2.0,0000*46 10:44:20.00 01/21/00 148 0
0   50251.736  50274.075 10:44:19.400 01/21/00   0
21 $GPGGA,224439.00,3945.0811509,N,10513.2853097,W,4,29,0.5,1759.769,M,-15.954,M,3.0,0000*4A 10:44:19.00 01/21/00 131 0
0   50265.912  50282.784 10:44:18.400 01/21/00   0
21 $GPGGA,224438.00,3945.0816104,N,10513.2844430,W,4,30,0.5,1759.675,M,-15.954,M,2.0,0000*4F 10:44:18.00 01/21/00 156 0
0   50269.677  50281.286 10:44:17.400 01/21/00   0
21 $GPGGA,224437.00,3945.0820716,N,10513.2835831,W,4,31,0.5,1759.600,M,-15.954,M,3.0,0000*49 10:44:17.00 01/21/00 156 0
0   50249.556  50636.046 10:44:16.400 01/21/00   0
21 $GPGGA,224436.00,3945.0825077,N,10513.2827647,W,4,29,0.5,1759.581,M,-15.954,M,2.0,0000*43 10:44:16.00 01/21/00 189 0
0   50315.463  50447.810 10:44:15.400 01/21/00   0
21 $GPGGA,224435.00,3945.0829722,N,10513.2819655,W,4,29,0.5,1759.557,M,-15.954,M,3.0,0000*4F 10:44:15.00 01/21/00 140 0
0   50269.450  50265.514 10:44:14.400 01/21/00   0
21 $GPGGA,224434.00,3945.0834349,N,10513.2811335,W,4,28,0.6,1759.538,M,-15.954,M,2.0,0000*4A 10:44:14.00 01/21/00 140 0
0   50255.298  50241.189 10:44:13.400 01/21/00   0
21 $GPGGA,224433.00,3945.0839113,N,10513.2803458,W,4,28,0.6,1759.506,M,-15.954,M,3.0,0000*4E 10:44:13.00 01/21/00 151 0
0   50249.317  50246.802 10:44:12.400 01/21/00   0
21 $GPGGA,224432.00,3945.0843776,N,10513.2795220,W,4,29,0.5,1759.460,M,-15.954,M,2.0,0000*4C 10:44:12.00 01/21/00 164 0
0   50268.676  50280.521 10:44:11.400 01/21/00   0
21 $GPGGA,224431.00,3945.0848592,N,10513.2786716,W,4,26,0.7,1759.397,M,-15.954,M,3.0,0000*4D 10:44:11.00 01/21/00 140 0
0   50262.627  50275.794 10:44:10.400 01/21/00   0
21 $GPGGA,224430.00,3945.0853473,N,10513.2778183,W,4,26,0.5,1759.317,M,-15.955,M,2.0,0000*49 10:44:10.00 01/21/00 152 0
0   50264.050  50287.111 10:44:09.400 01/21/00   0
21 $GPGGA,224429.00,3945.0858050,N,10513.2770127,W,4,30,0.5,1759.252,M,-15.955,M,3.0,0000*4F 10:44:09.00 01/21/00 152 0
0   50267.594  50277.240 10:44:08.400 01/21/00   0
21 $GPGGA,224428.00,3945.0862646,N,10513.2762460,W,4,29,0.5,1759.185,M,-15.955,M,2.0,0000*43 10:44:08.100 01/21/00 318 0
0   50253.475  50265.736 10:44:07.400 01/21/00   0
21 $GPGGA,224427.00,3945.0867320,N,10513.2754025,W,4,31,0.5,1759.130,M,-15.955,M,3.0,0000*4A 10:44:07.00 01/21/00 140 0
0   50241.270  50239.840 10:44:06.400 01/21/00   0
21 $GPGGA,224426.00,3945.0872502,N,10513.2745024,W,4,29,0.6,1759.100,M,-15.955,M,2.0,0000*40 10:44:06.100 01/21/00 293 0
0   50225.495  50219.126 10:44:05.400 01/21/00   0
21 $GPGGA,224425.00,3945.0877566,N,10513.2736127,W,4,29,0.6,1759.045,M,-15.955,M,3.0,0000*43 10:44:05.00 01/21/00 139 0
0   50228.852  50246.914 10:44:04.400 01/21/00   0
21 $GPGGA,224424.00,3945.0882303,N,10513.2727519,W,4,30,0.5,1758.917,M,-15.955,M,2.0,0000*41 10:44:04.00 01/21/00 181 0
0   50243.965  50247.058 10:44:03.400 01/21/00   0
21 $GPGGA,224423.00,3945.0886830,N,10513.2719384,W,4,27,0.6,1758.845,M,-15.955,M,3.0,0000*44 10:44:03.100 01/21/00 268 0
0   50323.093  50364.538 10:44:02.400 01/21/00   0
21 $GPGGA,224422.00,3945.0891437,N,10513.2711304,W,4,28,0.6,1758.821,M,-15.955,M,2.0,0000*44 10:44:02.100 01/21/00 310 0
0   50482.318  50589.560 10:44:01.400 01/21/00   0
21 $GPGGA,224421.00,3945.0895918,N,10513.2703114,W,4,28,0.6,1758.814,M,-15.955,M,3.0,0000*44 10:44:01.00 01/21/00 131 0
0   50147.825  51443.490 10:44:00.400 01/21/00   0
21 $GPGGA,224420.00,3945.0900415,N,10513.2695130,W,4,27,0.6,1758.798,M,-15.955,M,2.0,0000*45 10:44:00.00 01/21/00 161 0
0       0.000  51503.058 10:43:59.400 01/21/00   0
21 $GPGGA,224419.00,3945.0904757,N,10513.2687440,W,4,27,0.6,1758.740,M,-15.955,M,3.0,0000*4B 10:43:59.00 01/21/00 163 0
0       0.000  50318.950 10:43:58.400 01/21/00   0
21 $GPGGA,224418.00,3945.0908519,N,10513.2681482,W,4,27,0.6,1758.650,M,-15.955,M,2.0,0000*47 10:43:58.00 01/21/00 181 0
0   49505.645  49767.510 10:43:57.400 01/21/00   0
21 $GPGGA,224417.00,3945.0910423,N,10513.2678910,W,4,27,0.6,1758.700,M,-15.955,M,3.0,0000*4C 10:43:57.00 01/21/00 155 0
3         0.000        0.000 10:43:56.800 01/21/00          6           0          34   4
0   49826.318  49717.925 10:43:56.400 01/21/00   0
21 $GPGGA,224416.00,3945.0910606,N,10513.2678556,W,4,27,0.6,1758.682,M,-15.955,M,2.0,0000*4C 10:43:56.00 01/21/00 164 0
0   49800.540  49671.481 10:43:55.400 01/21/00   0
21 $GPGGA,224415.00,3945.0911209,N,10513.2678398,W,4,28,0.6,1758.672,M,-15.955,M,3.0,0000*40 10:43:55.00 01/21/00 135 0
0   49593.603  49413.151 10:43:54.400 01/21/00   0
21 $GPGGA,224414.00,3945.0913360,N,10513.2678978,W,4,28,0.6,1758.658,M,-15.955,M,2.0,0000*40 10:43:54.00 01/21/00 131 0
0   49293.140  48978.083 10:43:53.400 01/21/00   0
21 $GPGGA,224413.00,3945.0914508,N,10513.2682726,W,4,27,0.6,1758.615,M,-15.955,M,3.0,0000*4F 10:43:53.00 01/21/00 125 0
0   49255.730  48803.323 10:43:52.400 01/21/00   0
21 $GPGGA,224412.00,3945.0912421,N,10513.2688402,W,4,28,0.6,1758.655,M,-15.955,M,2.0,0000*47 10:43:52.00 01/21/00 128 0
0   49584.973  49325.902 10:43:51.400 01/21/00   0
3         0.000        0.000 10:43:51.100 01/21/00         28           0          33   4
21 $GPGGA,224411.00,3945.0908909,N,10513.2693856,W,4,28,0.6,1758.672,M,-15.955,M,3.0,0000*4B 10:43:51.00 01/21/00 131 0
0   50201.926  50455.731 10:43:50.400 01/21/00   0
21 $GPGGA,224410.00,3945.0904961,N,10513.2700151,W,4,30,0.6,1758.705,M,-15.955,M,2.0,0000*44 10:43:50.00 01/21/00 134 0
0   50944.585  52103.268 10:43:49.400 01/21/00   0
21 $GPGGA,224409.00,3945.0900641,N,10513.2708047,W,4,28,0.6,1758.725,M,-15.955,M,3.0,0000*41 10:43:49.00 01/21/00 130 0
0   50809.547  51391.612 10:43:48.400 01/21/00   0
21 $GPGGA,224408.00,3945.0896129,N,10513.2716184,W,4,28,0.6,1758.780,M,-15.955,M,2.0,0000*48 10:43:48.00 01/21/00 151 0
0   50457.141  50621.470 10:43:47.400 01/21/00   0
21 $GPGGA,224407.00,3945.0891518,N,10513.2724450,W,4,30,0.6,1758.826,M,-15.955,M,3.0,0000*40 10:43:47.00 01/21/00 145 0
0   50297.650  50330.123 10:43:46.400 01/21/00   0
21 $GPGGA,224406.00,3945.0886606,N,10513.2732859,W,4,29,0.6,1758.908,M,-15.955,M,2.0,0000*4D 10:43:46.100 01/21/00 206 0
0   50231.516  50249.312 10:43:45.400 01/21/00   0
21 $GPGGA,224405.00,3945.0881599,N,10513.2741424,W,4,29,0.6,1758.977,M,-15.955,M,3.0,0000*47 10:43:45.00 01/21/00 139 0
0   50221.484  50231.279 10:43:44.400 01/21/00   0
21 $GPGGA,224404.00,3945.0876591,N,10513.2749815,W,4,29,0.6,1759.047,M,-15.955,M,2.0,0000*4A 10:43:44.00 01/21/00 146 0
0   50226.851  50224.234 10:43:43.400 01/21/00   0
21 $GPGGA,224403.00,3945.0871730,N,10513.2758029,W,4,30,0.6,1759.105,M,-15.955,M,3.0,0000*4A 10:43:43.00 01/21/00 131 0
0   50243.423  50248.924 10:43:42.400 01/21/00   0
21 $GPGGA,224402.00,3945.0866930,N,10513.2766474,W,4,29,0.6,1759.167,M,-15.955,M,2.0,0000*4F 10:43:42.00 01/21/00 139 0
0   50257.309  50265.832 10:43:41.400 01/21/00   0
21 $GPGGA,224401.00,3945.0862095,N,10513.2774838,W,4,29,0.6,1759.261,M,-15.955,M,3.0,0000*4D 10:43:41.00 01/21/00 147 0
0   50267.618  50288.480 10:43:40.400 01/21/00   0
21 $GPGGA,224400.00,3945.0857227,N,10513.2783589,W,4,26,0.7,1759.324,M,-15.954,M,2.0,0000*40 10:43:40.00 01/21/00 179 0
0   50262.091  50265.452 10:43:39.400 01/21/00   0
21 $GPGGA,224359.00,3945.0852497,N,10513.2792211,W,4,26,0.6,1759.367,M,-15.954,M,1.0,0000*40 10:43:39.00 01/21/00 143 0
0   50267.586  50297.130 10:43:38.400 01/21/00   0
21 $GPGGA,224358.00,3945.0847774,N,10513.2800816,W,4,26,0.6,1759.401,M,-15.954,M,2.0,0000*46 10:43:38.00 01/21/00 143 0
0   50262.455  50269.663 10:43:37.400 01/21/00   0
21 $GPGGA,224357.00,3945.0842979,N,10513.2809461,W,4,28,0.6,1759.458,M,-15.954,M,3.0,0000*49 10:43:37.00 01/21/00 142 0
0   50251.105  50241.310 10:43:36.400 01/21/00   0
21 $GPGGA,224356.00,3945.0838422,N,10513.2817810,W,4,28,0.6,1759.476,M,-15.954,M,2.0,0000*4E 10:43:36.00 01/21/00 140 0
0   50256.971  50246.712 10:43:35.400 01/21/00   0
21 $GPGGA,224355.00,3945.0833852,N,10513.2825955,W,4,29,0.6,1759.522,M,-15.954,M,3.0,0000*4C 10:43:35.00 01/21/00 140 0
0   50286.616  50294.373 10:43:34.400 01/21/00   0
21 $GPGGA,224354.00,3945.0829073,N,10513.2833999,W,4,30,0.6,1759.589,M,-15.954,M,2.0,0000*42 10:43:34.00 01/21/00 176 0
0   50334.500  50272.113 10:43:33.400 01/21/00   0
21 $GPGGA,224353.00,3945.0824707,N,10513.2841803,W,4,30,0.6,1759.638,M,-15.954,M,1.0,0000*41 10:43:33.00 01/21/00 156 0
0   50304.250  50299.800 10:43:32.400 01/21/00   0
21 $GPGGA,224352.00,3945.0820556,N,10513.2849632,W,4,28,0.6,1759.704,M,-15.954,M,2.0,0000*42 10:43:32.00 01/21/00 140 0
0   50275.505  50280.394 10:43:31.400 01/21/00   0
21 $GPGGA,224351.00,3945.0816400,N,10513.2857402,W,4,29,0.6,1759.753,M,-15.954,M,3.0,0000*4A 10:43:31.00 01/21/00 136 0
0   50266.503  50276.106 10:43:30.400 01/21/00   0
21 $GPGGA,224350.00,3945.0812550,N,10513.2864621,W,4,30,0.6,1759.794,M,-15.954,M,2.0,0000*4A 10:43:30.00 01/21/00 134 0
0   50251.870  50265.639 10:43:29.400 01/21/00   0
21 $GPGGA,224349.00,3945.0808604,N,10513.2871802,W,4,29,0.6,1759.829,M,-15.954,M,1.0,0000*42 10:43:29.00 01/21/00 140 0
0   50234.964  50258.297 10:43:28.400 01/21/00   0
21 $GPGGA,224348.00,3945.0804592,N,10513.2879279,W,4,29,0.6,1759.868,M,-15.954,M,2.0,0000*4B 10:43:28.00 01/21/00 188 0
0   50214.161  50199.678 10:43:27.400 01/21/00   0
21 $GPGGA,224347.00,3945.0800967,N,10513.2886672,W,4,28,0.6,1759.893,M,-15.954,M,3.0,0000*4D 10:43:27.00 01/21/00 134 0
0   50222.870  50220.181 10:43:26.400 01/21/00   0
21 $GPGGA,224346.00,3945.0796983,N,10513.2894019,W,4,28,0.6,1759.918,M,-15.954,M,2.0,0000*4D 10:43:26.00 01/21/00 130 0
0   50244.733  50262.800 10:43:25.400 01/21/00   0
21 $GPGGA,224345.00,3945.0793205,N,10513.2900241,W,4,28,0.6,1759.995,M,-15.954,M,3.0,0000*49 10:43:25.00 01/21/00 135 0
0   50248.433  50286.111 10:43:24.400 01/21/00   0
21 $GPGGA,224344.00,3945.0790115,N,10513.2904826,W,4,29,0.6,1760.035,M,-15.954,M,2.0,0000*4F 10:43:24.00 01/21/00 182 0
0   50238.045  50270.053 10:43:23.400 01/21/00   0
21 $GPGGA,224343.00,3945.0789226,N,10513.2906022,W,4,28,0.6,1760.065,M,-15.954,M,3.0,0000*48 10:43:23.00 01/21/00 150 0
3         0.000        0.000 10:43:22.900 01/21/00          5           0          32   4
0   50234.810  50260.992 10:43:22.400 01/21/00   0
21 $GPGGA,224342.00,3945.0788840,N,10513.2906668,W,4,29,0.6,1760.056,M,-15.954,M,2.0,0000*4A 10:43:22.00 01/21/00 184 0
0   50198.489  50197.688 10:43:21.400 01/21/00   0
21 $GPGGA,224341.00,3945.0788909,N,10513.2908461,W,4,28,0.6,1760.044,M,-15.954,M,3.0,0000*43 10:43:21.00 01/21/00 143 0
0   50139.009  50107.977 10:43:20.400 01/21/00   0
21 $GPGGA,224340.00,3945.0789827,N,10513.2909212,W,4,28,0.6,1760.031,M,-15.954,M,2.0,0000*4E 10:43:20.00 01/21/00 128 0
0   50191.752  50190.713 10:43:19.400 01/21/00   0
21 $GPGGA,224339.00,3945.0791499,N,10513.2908713,W,4,29,0.6,1760.018,M,-15.954,M,3.0,0000*4E 10:43:19.00 01/21/00 143 0
0   50223.569  50230.362 10:43:18.400 01/21/00   0
3         0.000        0.000 10:43:18.400 01/21/00         32           0          31   4
21 $GPGGA,224338.00,3945.0792943,N,10513.2906347,W,4,29,0.6,1759.999,M,-15.954,M,2.0,0000*46 10:43:18.00 01/21/00 160 0
0   50243.634  50268.056 10:43:17.400 01/21/00   0
21 $GPGGA,224337.00,3945.0795383,N,10513.2900844,W,4,28,0.6,1759.983,M,-15.954,M,3.0,0000*4D 10:43:17.00 01/21/00 131 0
0   50270.064  50351.307 10:43:16.400 01/21/00   0
21 $GPGGA,224336.00,3945.0798247,N,10513.2893564,W,4,29,0.6,1759.894,M,-15.954,M,2.0,0000*4B 10:43:16.00 01/21/00 156 0
0   50257.815  50285.917 10:43:15.400 01/21/00   0
21 $GPGGA,224335.00,3945.0801828,N,10513.2886518,W,4,29,0.6,1759.868,M,-15.954,M,3.0,0000*49 10:43:15.00 01/21/00 161 0
0   50231.948  50226.201 10:43:14.400 01/21/00   0
21 $GPGGA,224334.00,3945.0805538,N,10513.2879276,W,4,29,0.6,1759.856,M,-15.954,M,2.0,0000*43 10:43:14.00 01/21/00 143 0
0   50228.966  50222.787 10:43:13.400 01/21/00   0
21 $GPGGA,224333.00,3945.0809315,N,10513.2872035,W,4,29,0.6,1759.826,M,-15.954,M,3.0,0000*49 10:43:13.00 01/21/00 143 0
0   50245.727  50253.632 10:43:12.400 01/21/00   0
21 $GPGGA,224332.00,3945.0813276,N,10513.2864793,W,4,30,0.5,1759.758,M,-15.954,M,2.0,0000*47 10:43:12.00 01/21/00 160 0
0   50261.213  50271.083 10:43:11.400 01/21/00   0
21 $GPGGA,224331.00,3945.0817408,N,10513.2857845,W,4,28,0.6,1759.717,M,-15.954,M,3.0,0000*4B 10:43:11.00 01/21/00 147 0
0   50275.895  50289.960 10:43:10.400 01/21/00   0
21 $GPGGA,224330.00,3945.0821330,N,10513.2850562,W,4,28,0.6,1759.653,M,-15.954,M,2.0,0000*4C 10:43:10.00 01/21/00 186 0
0   50284.516  50292.888 10:43:09.400 01/21/00   0
21 $GPGGA,224329.00,3945.0825249,N,10513.2842980,W,4,30,0.5,1759.637,M,-15.954,M,3.0,0000*45 10:43:09.00 01/21/00 150 0
0   50315.210  50354.586 10:43:08.400 01/21/00   0
21 $GPGGA,224328.00,3945.0829350,N,10513.2835325,W,4,29,0.6,1759.608,M,-15.954,M,2.0,0000*42 10:43:08.00 01/21/00 142 0
0   50351.100  50509.534 10:43:07.400 01/21/00   0
21 $GPGGA,224327.00,3945.0833412,N,10513.2827928,W,4,29,0.6,1759.555,M,-15.954,M,3.0,0000*49 10:43:07.00 01/21/00 131 0
0   50306.712  50344.021 10:43:06.400 01/21/00   0
21 $GPGGA,224326.00,3945.0837260,N,10513.2820643,W,4,29,0.6,1759.486,M,-15.954,M,2.0,0000*44 10:43:06.00 01/21/00 143 0
0   50270.782  50255.981 10:43:05.400 01/21/00   0
21 $GPGGA,224325.00,3945.0841153,N,10513.2813412,W,4,29,0.6,1759.452,M,-15.954,M,3.0,0000*4B 10:43:05.00 01/21/00 147 0
0   50260.361  50256.531 10:43:04.400 01/21/00   0
21 $GPGGA,224324.00,3945.0845131,N,10513.2806143,W,4,26,0.6,1759.428,M,-15.954,M,2.0,0000*4C 10:43:04.00 01/21/00 161 0
0   50265.815  50268.508 10:43:03.400 01/21/00   0
21 $GPGGA,224323.00,3945.0849493,N,10513.2798431,W,4,27,0.6,1759.389,M,-15.954,M,3.0,0000*4E 10:43:03.00 01/21/00 138 0
0   50073.766  50275.486 10:43:02.400 01/21/00   0
21 $GPGGA,224322.00,3945.0853892,N,10513.2790600,W,4,26,0.6,1759.327,M,-15.954,M,2.0,0000*45 10:43:02.00 01/21/00 140 0
0       0.000  50252.392 10:43:01.400 01/21/00   0
21 $GPGGA,224321.00,3945.0858234,N,10513.2782642,W,4,27,0.6,1759.224,M,-15.954,M,3.0,0000*4C 10:43:01.00 01/21/00 140 0
0       0.000  50289.894 10:43:00.400 01/21/00   0
21 $GPGGA,224320.00,3945.0862550,N,10513.2774770,W,4,28,0.6,1759.200,M,-15.955,M,2.0,0000*41 10:43:00.00 01/21/00 127 0
0       0.000  50276.569 10:42:59.400 01/21/00   0
21 $GPGGA,224319.00,3945.0867298,N,10513.2766606,W,4,28,0.6,1759.205,M,-15.955,M,1.0,0000*48 10:42:59.00 01/21/00 127 0
0       0.000  50274.075 10:42:58.400 01/21/00   0
21 $GPGGA,224318.00,3945.0871699,N,10513.2758588,W,4,29,0.6,1759.114,M,-15.955,M,2.0,0000*42 10:42:58.00 01/21/00 156 0
0   49078.944  50240.283 10:42:57.400 01/21/00   0
21 $GPGGA,224317.00,3945.0875766,N,10513.2750986,W,4,30,0.6,1759.027,M,-15.955,M,3.0,0000*4A 10:42:57.00 01/21/00 136 0
0       0.000  50244.469 10:42:56.400 01/21/00   0
21 $GPGGA,224316.00,3945.0879898,N,10513.2743286,W,4,30,0.6,1758.972,M,-15.955,M,2.0,0000*49 10:42:56.00 01/21/00 124 0
0       0.000  50222.185 10:42:55.400 01/21/00   0
21 $GPGGA,224315.00,3945.0883870,N,10513.2735683,W,4,29,0.6,1758.950,M,-15.955,M,3.0,0000*40 10:42:55.00 01/21/00 131 0
0   49960.956  50224.327 10:42:54.400 01/21/00   0
21 $GPGGA,224314.00,3945.0887810,N,10513.2728428,W,4,29,0.6,1758.938,M,-15.955,M,2.0,0000*43 10:42:54.00 01/21/00 127 0
0       0.000  50248.204 10:42:53.400 01/21/00   0
21 $GPGGA,224313.00,3945.0892078,N,10513.2721818,W,4,30,0.6,1758.879,M,-15.955,M,3.0,0000*4D 10:42:53.00 01/21/00 152 0
0   50339.128  50411.050 10:42:52.400 01/21/00   0
21 $GPGGA,224312.00,3945.0895969,N,10513.2715316,W,4,29,0.6,1758.832,M,-15.955,M,2.0,0000*46 10:42:52.00 01/21/00 185 0
0   50464.780  50589.045 10:42:51.400 01/21/00   0
21 $GPGGA,224311.00,3945.0899887,N,10513.2708606,W,4,28,0.6,1758.772,M,-15.955,M,3.0,0000*4B 10:42:51.00 01/21/00 134 0
0   50182.548  51048.425 10:42:50.400 01/21/00   0
21 $GPGGA,224310.00,3945.0904300,N,10513.2701738,W,4,28,0.6,1758.727,M,-15.955,M,2.0,0000*4F 10:42:50.00 01/21/00 131 0
0       0.000  51700.693 10:42:49.400 01/21/00   0
21 $GPGGA,224309.00,3945.0908365,N,10513.2694420,W,4,28,0.6,1758.716,M,-15.955,M,3.0,0000*4C 10:42:49.00 01/21/00 139 0
0   49369.162  50718.887 10:42:48.400 01/21/00   0
21 $GPGGA,224308.00,3945.0912031,N,10513.2687611,W,4,27,0.6,1758.681,M,-15.955,M,2.0,0000*47 10:42:48.00 01/21/00 142 0
0       0.000  49795.085 10:42:47.400 01/21/00   0
21 $GPGGA,224307.00,3945.0914660,N,10513.2683162,W,4,26,0.6,1758.632,M,-15.955,M,3.0,0000*43 10:42:47.00 01/21/00 144 0
0   49749.465  49555.553 10:42:46.400 01/21/00   0
21 $GPGGA,224306.00,3945.0915293,N,10513.2682115,W,4,29,0.6,1758.620,M,-15.955,M,2.0,0000*47 10:42:46.00 01/21/00 181 0
3         0.000        0.000 10:42:46.00 01/21/00          7           0          30   4
0   48618.122  49465.132 10:42:45.400 01/21/00   0
21 $GPGGA,224305.00,3945.0915429,N,10513.2681749,W,4,28,0.6,1758.598,M,-15.955,M,3.0,0000*4F 10:42:45.00 01/21/00 131 0
0   49670.743  49484.921 10:42:44.400 01/21/00   0
21 $GPGGA,224304.00,3945.0916272,N,10513.2680858,W,4,28,0.6,1758.623,M,-15.955,M,2.0,0000*49 10:42:44.00 01/21/00 139 0
0   49439.113  49105.740 10:42:43.400 01/21/00   0
21 $GPGGA,224303.00,3945.0917158,N,10513.2681011,W,4,28,0.6,1758.624,M,-15.955,M,3.0,0000*46 10:42:43.00 01/21/00 136 0
0   49196.395  48767.356 10:42:42.400 01/21/00   0
21 $GPGGA,224302.00,3945.0918316,N,10513.2683801,W,4,27,0.6,1758.607,M,-15.955,M,2.0,0000*44 10:42:42.00 01/21/00 128 0
0   49141.346  48737.620 10:42:41.400 01/21/00   0
21 $GPGGA,224301.00,3945.0917414,N,10513.2688238,W,4,27,0.6,1758.636,M,-15.955,M,3.0,0000*45 10:42:41.00 01/21/00 143 0
0   49317.199  49023.899 10:42:40.400 01/21/00   0
21 $GPGGA,224300.00,3945.0915533,N,10513.2692455,W,4,29,0.6,1758.669,M,-15.955,M,2.0,0000*41 10:42:40.00 01/21/00 136 0
0   49548.980  49323.915 10:42:39.400 01/21/00   0
3         0.000        0.000 10:42:39.300 01/21/00         29           0          29   4
21 $GPGGA,224259.00,3945.0912491,N,10513.2697352,W,4,26,0.6,1758.686,M,-15.955,M,1.0,0000*4A 10:42:39.00 01/21/00 146 0
0   50014.193  49982.271 10:42:38.400 01/21/00   0
21 $GPGGA,224258.00,3945.0908758,N,10513.2704141,W,4,30,0.6,1758.696,M,-15.955,M,2.0,0000*48 10:42:38.00 01/21/00 145 0
0   50530.794  50741.310 10:42:37.400 01/21/00   0
21 $GPGGA,224257.00,3945.0904645,N,10513.2711929,W,4,29,0.6,1758.712,M,-15.955,M,3.0,0000*40 10:42:37.00 01/21/00 138 0
0   50562.209  50684.911 10:42:36.400 01/21/00   0
21 $GPGGA,224256.00,3945.0900329,N,10513.2719987,W,4,27,0.6,1758.749,M,-15.955,M,2.0,0000*47 10:42:36.00 01/21/00 136 0
0   50364.742  50396.340 10:42:35.400 01/21/00   0
21 $GPGGA,224255.00,3945.0895971,N,10513.2728357,W,4,29,0.6,1758.798,M,-15.955,M,3.0,0000*48 10:42:35.00 01/21/00 144 0
0   50275.329  50312.964 10:42:34.400 01/21/00   0
21 $GPGGA,224254.00,3945.0891304,N,10513.2736772,W,4,30,0.6,1758.851,M,-15.955,M,2.0,0000*4A 10:42:34.00 01/21/00 188 0
0   50214.136  50212.745 10:42:33.400 01/21/00   0
21 $GPGGA,224253.00,3945.0886684,N,10513.2745037,W,4,29,0.6,1758.922,M,-15.955,M,3.0,0000*48 10:42:33.00 01/21/00 151 0
0   50209.068  50203.480 10:42:32.400 01/21/00   0
21 $GPGGA,224252.00,3945.0882240,N,10513.2753015,W,4,29,0.6,1758.999,M,-15.955,M,2.0,0000*47 10:42:32.00 01/21/00 149 0
0   50224.073  50223.447 10:42:31.400 01/21/00   0
21 $GPGGA,224251.00,3945.0877906,N,10513.2761164,W,4,29,0.6,1759.088,M,-15.955,M,3.0,0000*48 10:42:31.00 01/21/00 136 0
0   50240.920  50223.377 10:42:30.400 01/21/00   0
21 $GPGGA,224250.00,3945.0873707,N,10513.2768964,W,4,30,0.6,1759.153,M,-15.955,M,2.0,0000*4D 10:42:30.00 01/21/00 152 0
0   50257.557  50249.620 10:42:29.400 01/21/00   0
21 $GPGGA,224249.00,3945.0869318,N,10513.2776243,W,4,28,0.6,1759.238,M,-15.955,M,3.0,0000*43 10:42:29.00 01/21/00 147 0
0   50264.073  50259.534 10:42:28.400 01/21/00   0
21 $GPGGA,224248.00,3945.0864886,N,10513.2783320,W,4,26,0.6,1759.281,M,-15.954,M,2.0,0000*41 10:42:28.00 01/21/00 168 0
0   50268.310  50270.148 10:42:27.400 01/21/00   0
21 $GPGGA,224247.00,3945.0860452,N,10513.2790238,W,4,25,0.6,1759.322,M,-15.954,M,3.0,0000*4F 10:42:27.00 01/21/00 152 0
0   50265.664  50271.409 10:42:26.400 01/21/00   0
21 $GPGGA,224246.00,3945.0856582,N,10513.2797119,W,4,27,0.6,1759.375,M,-15.954,M,2.0,0000*41 10:42:26.00 01/21/00 148 0
0   50264.518  50263.170 10:42:25.400 01/21/00   0
21 $GPGGA,224245.00,3945.0852629,N,10513.2804324,W,4,26,0.6,1759.361,M,-15.954,M,3.0,0000*48 10:42:25.00 01/21/00 144 0
0   50272.562  50283.034 10:42:24.400 01/21/00   0
21 $GPGGA,224244.00,3945.0848776,N,10513.2812092,W,4,26,0.6,1759.444,M,-15.954,M,2.0,0000*41 10:42:24.00 01/21/00 144 0
0   50276.780  50289.899 10:42:23.400 01/21/00   0
21 $GPGGA,224243.00,3945.0844470,N,10513.2819467,W,4,28,0.6,1759.463,M,-15.954,M,3.0,0000*40 10:42:23.00 01/21/00 144 0
0   50273.440  50278.860 10:42:22.400 01/21/00   0
21 $GPGGA,224242.00,3945.0839844,N,10513.2827332,W,4,27,0.6,1759.496,M,-15.954,M,2.0,0000*4E 10:42:22.00 01/21/00 159 0
0   50287.384  50307.656 10:42:21.400 01/21/00   0
21 $GPGGA,224241.00,3945.0835354,N,10513.2835660,W,4,27,0.6,1759.557,M,-15.954,M,3.0,0000*47 10:42:21.00 01/21/00 149 0
0   50320.736  50350.734 10:42:20.400 01/21/00   0
21 $GPGGA,224240.00,3945.0830907,N,10513.2843506,W,4,28,0.6,1759.619,M,-15.954,M,2.0,0000*4A 10:42:20.00 01/21/00 148 0
0   50327.367  50374.536 10:42:19.400 01/21/00   0
21 $GPGGA,224239.00,3945.0826717,N,10513.2851252,W,4,29,0.6,1759.663,M,-15.954,M,3.0,0000*44 10:42:19.00 01/21/00 144 0
0   50293.227  50295.649 10:42:18.400 01/21/00   0
21 $GPGGA,224238.00,3945.0822579,N,10513.2859136,W,4,29,0.5,1759.716,M,-15.954,M,2.0,0000*43 10:42:18.00 01/21/00 152 0
0   50286.373  50307.608 10:42:17.400 01/21/00   0
21 $GPGGA,224237.00,3945.0818316,N,10513.2867044,W,4,29,0.5,1759.778,M,-15.954,M,3.0,0000*4A 10:42:17.00 01/21/00 150 0
0   50267.186  50282.344 10:42:16.400 01/21/00   0
21 $GPGGA,224236.00,3945.0813948,N,10513.2874763,W,4,29,0.6,1759.834,M,-15.954,M,2.0,0000*44 10:42:16.00 01/21/00 194 0
0   50248.471  50255.817 10:42:15.400 01/21/00   0
21 $GPGGA,224235.00,3945.0809393,N,10513.2882544,W,4,28,0.6,1759.898,M,-15.954,M,3.0,0000*48 10:42:15.00 01/21/00 144 0
0   50240.216  50246.282 10:42:14.400 01/21/00   0
21 $GPGGA,224234.00,3945.0804841,N,10513.2890155,W,4,28,0.6,1759.929,M,-15.954,M,2.0,0000*4D 10:42:14.00 01/21/00 151 0
0   50234.543  50233.494 10:42:13.400 01/21/00   0
21 $GPGGA,224233.00,3945.0800540,N,10513.2897346,W,4,29,0.6,1759.956,M,-15.954,M,3.0,0000*4D 10:42:13.00 01/21/00 146 0
0   50255.315  50286.631 10:42:12.400 01/21/00   0
21 $GPGGA,224232.00,3945.0796686,N,10513.2904039,W,4,26,0.6,1759.980,M,-15.954,M,2.0,0000*40 10:42:12.00 01/21/00 149 0
0   50270.339  50323.393 10:42:11.400 01/21/00   0
21 $GPGGA,224231.00,3945.0793996,N,10513.2909420,W,4,28,0.6,1760.041,M,-15.954,M,3.0,0000*48 10:42:11.00 01/21/00 148 0
0   50266.197  50348.722 10:42:10.400 01/21/00   0
21 $GPGGA,224230.00,3945.0792844,N,10513.2911062,W,4,28,0.6,1760.054,M,-15.953,M,2.0,0000*4F 10:42:10.100 01/21/00 317 0
3         0.000        0.000 10:42:09.700 01/21/00          6           0          28   4
0   50263.724  50346.970 10:42:09.400 01/21/00   0
21 $GPGGA,224229.00,3945.0792563,N,10513.2912032,W,4,29,0.6,1760.044,M,-15.953,M,3.0,0000*48 10:42:09.100 01/21/00 262 0
0   50246.267  50254.016 10:42:08.400 01/21/00   0
21 $GPGGA,224228.00,3945.0792902,N,10513.2913190,W,4,29,0.6,1760.039,M,-15.953,M,2.0,0000*41 10:42:08.00 01/21/00 143 0
0   50204.834  50188.378 10:42:07.400 01/21/00   0
21 $GPGGA,224227.00,3945.0794330,N,10513.2912333,W,4,29,0.5,1760.031,M,-15.953,M,3.0,0000*43 10:42:07.00 01/21/00 149 0
0   50237.686  50257.744 10:42:06.400 01/21/00   0
21 $GPGGA,224226.00,3945.0794859,N,10513.2910429,W,4,28,0.6,1760.030,M,-15.954,M,2.0,0000*4D 10:42:06.00 01/21/00 151 0
0   50262.379  50268.697 10:42:05.400 01/21/00   0
21 $GPGGA,224225.00,3945.0797306,N,10513.2907983,W,4,29,0.6,1760.015,M,-15.954,M,3.0,0000*40 10:42:05.00 01/21/00 143 0
0   50270.500  50287.849 10:42:04.400 01/21/00   0
3         0.000        0.000 10:42:04.100 01/21/00         28           0          27   4
21 $GPGGA,224224.00,3945.0799334,N,10513.2902761,W,4,28,0.6,1759.957,M,-15.954,M,2.0,0000*4C 10:42:04.00 01/21/00 160 0
0   50272.220  50275.381 10:42:03.400 01/21/00   0
21 $GPGGA,224223.00,3945.0802390,N,10513.2896451,W,4,29,0.6,1759.931,M,-15.954,M,3.0,0000*44 10:42:03.00 01/21/00 148 0
0   50256.929  50259.441 10:42:02.400 01/21/00   0
21 $GPGGA,224222.00,3945.0806402,N,10513.2889382,W,4,28,0.6,1759.925,M,-15.954,M,2.0,0000*4F 10:42:02.00 01/21/00 148 0
0   50244.958  50245.119 10:42:01.400 01/21/00   0
21 $GPGGA,224221.00,3945.0810529,N,10513.2881290,W,4,28,0.6,1759.835,M,-15.954,M,3.0,0000*48 10:42:01.00 01/21/00 144 0
0   50254.690  50270.676 10:42:00.400 01/21/00   0
21 $GPGGA,224220.00,3945.0815041,N,10513.2872897,W,4,29,0.6,1759.746,M,-15.954,M,2.0,0000*4D 10:42:00.00 01/21/00 144 0
0   50260.249  50266.009 10:41:59.400 01/21/00   0
21 $GPGGA,224219.00,3945.0819658,N,10513.2864430,W,4,29,0.6,1759.702,M,-15.954,M,3.0,0000*42 10:41:59.00 01/21/00 151 0
0   50284.137  50301.459 10:41:58.400 01/21/00   0
21 $GPGGA,224218.00,3945.0824365,N,10513.2855863,W,4,29,0.6,1759.695,M,-15.954,M,2.0,0000*40 10:41:58.00 01/21/00 193 0
0   50297.585  50312.749 10:41:57.400 01/21/00   0
21 $GPGGA,224217.00,3945.0829148,N,10513.2847292,W,4,29,0.6,1759.673,M,-15.954,M,3.0,0000*41 10:41:57.00 01/21/00 148 0
0   50304.731  50300.019 10:41:56.400 01/21/00   0
21 $GPGGA,224216.00,3945.0833905,N,10513.2838861,W,4,28,0.6,1759.598,M,-15.954,M,2.0,0000*42 10:41:56.00 01/21/00 136 0
0   50313.545  50293.686 10:41:55.400 01/21/00   0
