3         0.000        0.000 10:07:43.700 01/21/00          1           0          38   5
0   50101.813  50226.710 10:07:43.400 01/21/00   0
21 $GPGGA,220803.00,3945.0741044,N,10513.3057577,W,1,28,0.5,1761.523,M,-15.952,M,0.0,*4D 10:07:43.100 01/21/00 285 0
3         0.000        0.000 10:07:42.400 01/21/00         13           0          37   4
0       0.000  50225.208 10:07:42.400 01/21/00   0
21 $GPGGA,220802.00,3945.0740767,N,10513.3056118,W,1,29,0.5,1761.533,M,-15.952,M,0.0,*47 10:07:42.100 01/21/00 286 0
0   49988.027  50221.878 10:07:41.400 01/21/00   0
21 $GPGGA,220801.00,3945.0739321,N,10513.3051134,W,1,28,0.5,1761.609,M,-15.952,M,0.0,*4E 10:07:41.100 01/21/00 286 0
0   49799.571  50212.266 10:07:40.400 01/21/00   0
21 $GPGGA,220800.00,3945.0737670,N,10513.3044736,W,1,29,0.5,1761.631,M,-15.952,M,0.0,*4A 10:07:40.100 01/21/00 306 0
0   49701.316  50200.608 10:07:39.400 01/21/00   0
21 $GPGGA,220759.00,3945.0736045,N,10513.3037730,W,1,26,0.6,1761.635,M,-15.953,M,0.0,*43 10:07:39.100 01/21/00 282 0
0   50018.163  50209.081 10:07:38.400 01/21/00   0
21 $GPGGA,220758.00,3945.0734922,N,10513.3030795,W,1,26,0.6,1761.700,M,-15.953,M,0.0,*47 10:07:38.100 01/21/00   2 0
0   49342.394  50194.986 10:07:37.400 01/21/00   0
21 $GPGGA,220757.00,3945.0733953,N,10513.3024169,W,1,27,0.5,1761.710,M,-15.953,M,0.0,*4A 10:07:37.100 01/21/00 288 0
0       0.000  50176.892 10:07:36.400 01/21/00   0
21 $GPGGA,220756.00,3945.0732765,N,10513.3018124,W,1,26,0.6,1761.767,M,-15.953,M,0.0,*45 10:07:36.100 01/21/00 312 0
0       0.000  50168.160 10:07:35.400 01/21/00   0
21 $GPGGA,220755.00,3945.0731371,N,10513.3011705,W,1,27,0.5,1761.759,M,-15.953,M,0.0,*47 10:07:35.100 01/21/00 285 0
0   49869.827  50169.597 10:07:34.400 01/21/00   0
21 $GPGGA,220754.00,3945.0730305,N,10513.3005546,W,1,26,0.6,1761.707,M,-15.953,M,0.0,*4D 10:07:34.100 01/21/00 307 0
0   49895.172  50144.129 10:07:33.400 01/21/00   0
21 $GPGGA,220753.00,3945.0729202,N,10513.2999034,W,1,27,0.6,1761.751,M,-15.953,M,0.0,*4B 10:07:33.100 01/21/00 285 0
0   49717.193  50125.380 10:07:32.400 01/21/00   0
21 $GPGGA,220752.00,3945.0727683,N,10513.2992912,W,1,28,0.5,1761.758,M,-15.953,M,0.0,*4A 10:07:32.100 01/21/00 285 0
0   49588.083  50116.091 10:07:31.400 01/21/00   0
21 $GPGGA,220751.00,3945.0726094,N,10513.2987803,W,1,27,0.6,1761.796,M,-15.953,M,0.0,*43 10:07:31.100 01/21/00 285 0
0   50060.256  50098.966 10:07:30.400 01/21/00   0
21 $GPGGA,220750.00,3945.0725622,N,10513.2985613,W,1,27,0.6,1761.771,M,-15.953,M,0.0,*4E 10:07:30.100 01/21/00 289 0
3         0.000        0.000 10:07:29.700 01/21/00          8           0          36   4
0   49800.186  50091.378 10:07:29.400 01/21/00   0
21 $GPGGA,220749.00,3945.0725621,N,10513.2985736,W,1,27,0.6,1761.767,M,-15.953,M,0.0,*44 10:07:29.100 01/21/00 289 0
0   49740.747  50095.673 10:07:28.400 01/21/00   0
21 $GPGGA,220748.00,3945.0725567,N,10513.2985800,W,1,26,0.6,1761.752,M,-15.953,M,0.0,*49 10:07:28.100 01/21/00 309 0
0   50065.767  50093.519 10:07:27.400 01/21/00   0
21 $GPGGA,220747.00,3945.0724151,N,10513.2986447,W,1,26,0.6,1761.575,M,-15.953,M,0.0,*4D 10:07:27.100 01/21/00 285 0
0   50043.426  50067.476 10:07:26.400 01/21/00   0
21 $GPGGA,220746.00,3945.0720643,N,10513.2986404,W,1,27,0.6,1761.503,M,-15.953,M,0.0,*4B 10:07:26.100 01/21/00 290 0
0   49997.823  50031.997 10:07:25.400 01/21/00   0
21 $GPGGA,220745.00,3945.0717363,N,10513.2989054,W,1,27,0.6,1761.433,M,-15.953,M,0.0,*47 10:07:25.100 01/21/00 290 0
0   49915.193  49877.401 10:07:24.400 01/21/00   0
21 $GPGGA,220744.00,3945.0714946,N,10513.2991423,W,1,26,0.6,1761.402,M,-15.953,M,0.0,*46 10:07:24.100 01/21/00 292 0
0   49852.441  49679.469 10:07:23.400 01/21/00   0
21 $GPGGA,220743.00,3945.0714061,N,10513.2995162,W,1,27,0.6,1761.399,M,-15.953,M,0.0,*4D 10:07:23.100 01/21/00 285 0
0   49845.456  49663.141 10:07:22.400 01/21/00   0
3         0.000        0.000 10:07:22.100 01/21/00         12           0          35   4
21 $GPGGA,220742.00,3945.0714449,N,10513.2998250,W,1,26,0.6,1761.393,M,-15.953,M,0.0,*46 10:07:22.100 01/21/00 287 0
0   49883.311  49805.882 10:07:21.400 01/21/00   0
21 $GPGGA,220741.00,3945.0716246,N,10513.3003145,W,1,26,0.6,1761.415,M,-15.953,M,0.0,*4A 10:07:21.100 01/21/00 290 0
0   49959.162  49969.872 10:07:20.400 01/21/00   0
21 $GPGGA,220740.00,3945.0718143,N,10513.3009479,W,1,27,0.5,1761.401,M,-15.953,M,0.0,*44 10:07:20.100 01/21/00 292 0
0   50015.447  50040.443 10:07:19.400 01/21/00   0
21 $GPGGA,220739.00,3945.0719566,N,10513.3015829,W,1,27,0.5,1761.400,M,-15.953,M,0.0,*4D 10:07:19.100 01/21/00 289 0
0   50050.129  50082.329 10:07:18.400 01/21/00   0
21 $GPGGA,220738.00,3945.0721130,N,10513.3022212,W,1,27,0.5,1761.452,M,-15.953,M,0.0,*41 10:07:18.100 01/21/00 313 0
0   50072.614  50097.559 10:07:17.400 01/21/00   0
21 $GPGGA,220737.00,3945.0722378,N,10513.3029076,W,1,28,0.5,1761.432,M,-15.953,M,0.0,*41 10:07:17.100 01/21/00 297 0
0   50088.704  50108.876 10:07:16.400 01/21/00   0
21 $GPGGA,220736.00,3945.0723719,N,10513.3035932,W,1,27,0.5,1761.425,M,-15.953,M,0.0,*4F 10:07:16.100 01/21/00 307 0
0   50098.984  50101.215 10:07:15.400 01/21/00   0
21 $GPGGA,220735.00,3945.0725044,N,10513.3042641,W,1,27,0.6,1761.402,M,-15.952,M,0.0,*49 10:07:15.100 01/21/00 290 0
0   50108.985  50113.133 10:07:14.400 01/21/00   0
21 $GPGGA,220734.00,3945.0726194,N,10513.3049564,W,1,26,0.6,1761.387,M,-15.952,M,0.0,*43 10:07:14.100 01/21/00 289 0
0   50122.198  50130.777 10:07:13.400 01/21/00   0
21 $GPGGA,220733.00,3945.0727451,N,10513.3056127,W,1,28,0.5,1761.384,M,-15.952,M,0.0,*4A 10:07:13.100 01/21/00 285 0
0   50133.697  50151.650 10:07:12.400 01/21/00   0
21 $GPGGA,220732.00,3945.0728420,N,10513.3062866,W,1,29,0.5,1761.302,M,-15.952,M,0.0,*46 10:07:12.100 01/21/00 290 0
0   50145.388  50165.528 10:07:11.400 01/21/00   0
21 $GPGGA,220731.00,3945.0730015,N,10513.3067891,W,1,28,0.5,1761.278,M,-15.952,M,0.0,*4E 10:07:11.100 01/21/00 310 0
0   50152.876  50195.610 10:07:10.400 01/21/00   0
21 $GPGGA,220730.00,3945.0730754,N,10513.3070052,W,1,28,0.5,1761.283,M,-15.952,M,0.0,*48 10:07:10.100 01/21/00 340 0
3         0.000        0.000 10:07:09.800 01/21/00          6           0          34   4
0   50156.742  50183.027 10:07:09.400 01/21/00   0
21 $GPGGA,220729.00,3945.0730753,N,10513.3070867,W,1,28,0.5,1761.285,M,-15.952,M,0.0,*4F 10:07:09.100 01/21/00 313 0
0   50133.566  50186.034 10:07:08.400 01/21/00   0
21 $GPGGA,220728.00,3945.0728838,N,10513.3073659,W,1,29,0.5,1761.261,M,-15.952,M,0.0,*4E 10:07:08.100 01/21/00 284 0
0       0.000  50198.615 10:07:07.400 01/21/00   0
21 $GPGGA,220727.00,3945.0726021,N,10513.3074304,W,1,27,0.5,1761.300,M,-15.952,M,0.0,*4D 10:07:07.100 01/21/00 290 0
0   50061.561  50191.850 10:07:06.400 01/21/00   0
21 $GPGGA,220726.00,3945.0722657,N,10513.3072760,W,1,26,0.6,1761.312,M,-15.952,M,0.0,*4E 10:07:06.100 01/21/00 290 0
0       0.000  50185.172 10:07:05.400 01/21/00   0
21 $GPGGA,220725.00,3945.0720693,N,10513.3071134,W,1,29,0.5,1761.344,M,-15.952,M,0.0,*4C 10:07:05.100 01/21/00 290 0
0       0.000  50173.857 10:07:04.400 01/21/00   0
21 $GPGGA,220724.00,3945.0720558,N,10513.3069833,W,1,27,0.6,1761.329,M,-15.952,M,0.0,*48 10:07:04.100 01/21/00 305 0
3         0.000        0.000 10:07:04.00 01/21/00         13           0          33   4
0       0.000  50140.520 10:07:03.400 01/21/00   0
21 $GPGGA,220723.00,3945.0719518,N,10513.3065284,W,1,27,0.5,1761.340,M,-15.952,M,0.0,*47 10:07:03.100 01/21/00 285 0
0       0.000  50055.295 10:07:02.400 01/21/00   0
21 $GPGGA,220722.00,3945.0717594,N,10513.3059072,W,1,28,0.5,1761.435,M,-15.952,M,0.0,*42 10:07:02.100 01/21/00 286 0
0       0.000  50038.465 10:07:01.400 01/21/00   0
21 $GPGGA,220721.00,3945.0716007,N,10513.3052494,W,1,26,0.6,1761.558,M,-15.952,M,0.0,*4F 10:07:01.100 01/21/00 286 0
0   47129.673  50074.014 10:07:00.400 01/21/00   0
21 $GPGGA,220720.00,3945.0714467,N,10513.3045918,W,1,26,0.6,1761.659,M,-15.952,M,0.0,*43 10:07:00.100 01/21/00 287 0
0   49657.136  50059.664 10:06:59.400 01/21/00   0
21 $GPGGA,220719.00,3945.0712615,N,10513.3039375,W,1,27,0.5,1761.694,M,-15.952,M,0.0,*41 10:06:59.100 01/21/00 288 0
0   49913.148  50074.270 10:06:58.400 01/21/00   0
21 $GPGGA,220718.00,3945.0711123,N,10513.3032571,W,1,27,0.5,1761.745,M,-15.953,M,0.0,*44 10:06:58.100 01/21/00 314 0
0       0.000  50047.843 10:06:57.400 01/21/00   0
21 $GPGGA,220717.00,3945.0709582,N,10513.3025974,W,1,27,0.5,1761.775,M,-15.953,M,0.0,*41 10:06:57.100 01/21/00 293 0
0       0.000  50022.907 10:06:56.400 01/21/00   0
21 $GPGGA,220716.00,3945.0708122,N,10513.3019669,W,1,27,0.6,1761.840,M,-15.953,M,0.0,*49 10:06:56.100 01/21/00 292 0
0       0.000  49985.638 10:06:55.400 01/21/00   0
21 $GPGGA,220715.00,3945.0706558,N,10513.3013078,W,1,25,0.6,1761.802,M,-15.953,M,0.0,*45 10:06:55.100 01/21/00 284 0
0       0.000  49961.359 10:06:54.400 01/21/00   0
21 $GPGGA,220714.00,3945.0705124,N,10513.3006222,W,1,26,0.6,1761.831,M,-15.953,M,0.0,*42 10:06:54.100 01/21/00 293 0
0   49646.750  49940.753 10:06:53.400 01/21/00   0
21 $GPGGA,220713.00,3945.0703676,N,10513.2999966,W,1,26,0.6,1761.790,M,-15.953,M,0.0,*42 10:06:53.100 01/21/00 289 0
0   49885.691  49903.281 10:06:52.400 01/21/00   0
21 $GPGGA,220712.00,3945.0702264,N,10513.2995250,W,1,27,0.6,1761.795,M,-15.953,M,0.0,*43 10:06:52.100 01/21/00 314 0
0   49304.340  49896.178 10:06:51.400 01/21/00   0
21 $GPGGA,220711.00,3945.0701715,N,10513.2993928,W,1,27,0.6,1761.775,M,-15.953,M,0.0,*4C 10:06:51.100 01/21/00 293 0
3         0.000        0.000 10:06:51.00 01/21/00          7           0          32   4
0       0.000  49896.132 10:06:50.400 01/21/00   0
21 $GPGGA,220710.00,3945.0701657,N,10513.2994136,W,1,27,0.6,1761.741,M,-15.953,M,0.0,*4D 10:06:50.100 01/21/00 293 0
0       0.000  49893.213 10:06:49.400 01/21/00   0
21 $GPGGA,220709.00,3945.0699357,N,10513.2994171,W,1,27,0.6,1761.712,M,-15.953,M,0.0,*45 10:06:49.100 01/21/00 294 0
0   49915.508  49935.004 10:06:48.400 01/21/00   0
21 $GPGGA,220708.00,3945.0695796,N,10513.2995083,W,1,27,0.6,1761.678,M,-15.953,M,0.0,*41 10:06:48.100 01/21/00 297 0
0   49928.872  49985.006 10:06:47.400 01/21/00   0
21 $GPGGA,220707.00,3945.0691692,N,10513.2997399,W,1,27,0.6,1761.662,M,-15.953,M,0.0,*4E 10:06:47.100 01/21/00 294 0
0   49830.208  49868.393 10:06:46.400 01/21/00   0
21 $GPGGA,220706.00,3945.0688475,N,10513.3000780,W,1,27,0.6,1761.685,M,-15.953,M,0.0,*4F 10:06:46.100 01/21/00 314 0
0   49743.951  49774.365 10:06:45.400 01/21/00   0
21 $GPGGA,220705.00,3945.0687517,N,10513.3003948,W,1,26,0.6,1761.711,M,-15.953,M,0.0,*42 10:06:45.100 01/21/00 298 0
0   49702.218  49722.764 10:06:44.400 01/21/00   0
3         0.000        0.000 10:06:44.300 01/21/00         12           0          31   4
21 $GPGGA,220704.00,3945.0687239,N,10513.3005656,W,1,26,0.6,1761.716,M,-15.953,M,0.0,*49 10:06:44.100 01/21/00 294 0
0   49649.081  49638.732 10:06:43.400 01/21/00   0
21 $GPGGA,220703.00,3945.0688310,N,10513.3010082,W,1,26,0.6,1761.656,M,-15.953,M,0.0,*45 10:06:43.100 01/21/00 297 0
0   49582.123  49529.844 10:06:42.400 01/21/00   0
21 $GPGGA,220702.00,3945.0689974,N,10513.3016055,W,1,28,0.6,1761.705,M,-15.953,M,0.0,*48 10:06:42.100 01/21/00 294 0
0   49561.171  49480.524 10:06:41.400 01/21/00   0
21 $GPGGA,220701.00,3945.0691863,N,10513.3022549,W,1,28,0.6,1761.712,M,-15.953,M,0.0,*4C 10:06:41.100 01/21/00 297 0
0   49636.810  49591.631 10:06:40.400 01/21/00   0
21 $GPGGA,220700.00,3945.0694046,N,10513.3029076,W,1,27,0.6,1761.676,M,-15.953,M,0.0,*49 10:06:40.100 01/21/00 315 0
0   49768.529  49776.527 10:06:39.400 01/21/00   0
21 $GPGGA,220659.00,3945.0696325,N,10513.3035418,W,1,27,0.6,1761.660,M,-15.953,M,0.0,*46 10:06:39.100 01/21/00 300 0
0   49867.425  49887.344 10:06:38.400 01/21/00   0
21 $GPGGA,220658.00,3945.0698641,N,10513.3042435,W,1,26,0.6,1761.663,M,-15.952,M,0.0,*42 10:06:38.100 01/21/00 293 0
0   49932.771  49955.241 10:06:37.400 01/21/00   0
21 $GPGGA,220657.00,3945.0700299,N,10513.3049468,W,1,25,0.7,1761.733,M,-15.952,M,0.0,*49 10:06:37.100 01/21/00 288 0
0   49983.170  50004.724 10:06:36.400 01/21/00   0
21 $GPGGA,220656.00,3945.0702088,N,10513.3056861,W,1,26,0.6,1761.773,M,-15.952,M,0.0,*45 10:06:36.100 01/21/00 293 0
0   50023.464  50042.256 10:06:35.400 01/21/00   0
21 $GPGGA,220655.00,3945.0703601,N,10513.3064218,W,1,27,0.6,1761.781,M,-15.952,M,0.0,*49 10:06:35.100 01/21/00 293 0
0   50053.230  50071.242 10:06:34.400 01/21/00   0
21 $GPGGA,220654.00,3945.0704887,N,10513.3071119,W,1,27,0.6,1761.795,M,-15.952,M,0.0,*4C 10:06:34.100 01/21/00 343 0
0   50079.901  50106.548 10:06:33.400 01/21/00   0
21 $GPGGA,220653.00,3945.0705838,N,10513.3076822,W,1,26,0.6,1761.877,M,-15.952,M,0.0,*4A 10:06:33.100 01/21/00 296 0
0   50090.014  50114.949 10:06:32.400 01/21/00   0
21 $GPGGA,220652.00,3945.0706628,N,10513.3079617,W,1,26,0.6,1761.903,M,-15.952,M,0.0,*42 10:06:32.100 01/21/00 317 0
3         0.000        0.000 10:06:31.700 01/21/00          7           0          30   4
0   50091.563  50117.308 10:06:31.400 01/21/00   0
21 $GPGGA,220651.00,3945.0706911,N,10513.3080031,W,1,26,0.6,1761.922,M,-15.952,M,0.0,*43 10:06:31.100 01/21/00 318 0
0   50095.992  50125.436 10:06:30.400 01/21/00   0
21 $GPGGA,220650.00,3945.0706229,N,10513.3081082,W,1,26,0.6,1761.901,M,-15.952,M,0.0,*4A 10:06:30.100 01/21/00 318 0
0   50108.049  50130.489 10:06:29.400 01/21/00   0
21 $GPGGA,220649.00,3945.0704348,N,10513.3083659,W,1,26,0.6,1761.922,M,-15.952,M,0.0,*45 10:06:29.100 01/21/00 290 0
0   50116.892  50132.298 10:06:28.400 01/21/00   0
21 $GPGGA,220648.00,3945.0700730,N,10513.3083784,W,1,27,0.6,1761.934,M,-15.952,M,0.0,*4C 10:06:28.100 01/21/00 293 0
0   49895.502  50121.982 10:06:27.400 01/21/00   0
21 $GPGGA,220647.00,3945.0697813,N,10513.3081147,W,1,26,0.6,1761.961,M,-15.952,M,0.0,*48 10:06:27.100 01/21/00 298 0
0       0.000  50114.434 10:06:26.400 01/21/00   0
21 $GPGGA,220646.00,3945.0696062,N,10513.3078746,W,1,27,0.5,1761.983,M,-15.952,M,0.0,*49 10:06:26.100 01/21/00 290 0
0   50089.852  50106.226 10:06:25.400 01/21/00   0
3         0.000        0.000 10:06:25.100 01/21/00         12           0          29   4
21 $GPGGA,220645.00,3945.0695306,N,10513.3077308,W,1,26,0.6,1761.988,M,-15.952,M,0.0,*40 10:06:25.100 01/21/00 292 0
0   50071.276  50092.455 10:06:24.400 01/21/00   0
21 $GPGGA,220644.00,3945.0694528,N,10513.3073576,W,1,26,0.6,1761.975,M,-15.952,M,0.0,*43 10:06:24.100 01/21/00 282 0
0   49743.878  50069.837 10:06:23.400 01/21/00   0
21 $GPGGA,220643.00,3945.0693021,N,10513.3067598,W,1,27,0.6,1761.984,M,-15.952,M,0.0,*45 10:06:23.100 01/21/00 293 0
0   49909.996  50045.494 10:06:22.400 01/21/00   0
21 $GPGGA,220642.00,3945.0691278,N,10513.3061291,W,1,27,0.6,1761.986,M,-15.952,M,0.0,*42 10:06:22.100 01/21/00 289 0
0       0.000  50020.983 10:06:21.400 01/21/00   0
21 $GPGGA,220641.00,3945.0689810,N,10513.3054442,W,1,25,0.6,1762.003,M,-15.952,M,0.0,*47 10:06:21.100 01/21/00 297 0
0       0.000  49963.528 10:06:20.400 01/21/00   0
21 $GPGGA,220640.00,3945.0688235,N,10513.3047874,W,1,25,0.6,1761.984,M,-15.952,M,0.0,*44 10:06:20.100 01/21/00 298 0
0   49805.077  49908.299 10:06:19.400 01/21/00   0
21 $GPGGA,220639.00,3945.0686745,N,10513.3041471,W,1,26,0.6,1761.889,M,-15.952,M,0.0,*46 10:06:19.100 01/21/00 284 0
0   49103.610  49821.132 10:06:18.400 01/21/00   0
21 $GPGGA,220638.00,3945.0684911,N,10513.3034845,W,1,25,0.6,1761.966,M,-15.952,M,0.0,*40 10:06:18.100 01/21/00 297 0
0   49511.353  49678.675 10:06:17.400 01/21/00   0
21 $GPGGA,220637.00,3945.0683164,N,10513.3028194,W,1,26,0.6,1761.953,M,-15.953,M,0.0,*4E 10:06:17.100 01/21/00 298 0
0   49502.573  49419.047 10:06:16.400 01/21/00   0
21 $GPGGA,220636.00,3945.0681155,N,10513.3021507,W,1,25,0.6,1761.946,M,-15.953,M,0.0,*4F 10:06:16.100 01/21/00 315 0
0   49339.106  49140.482 10:06:15.400 01/21/00   0
21 $GPGGA,220635.00,3945.0679540,N,10513.3015735,W,1,25,0.6,1762.008,M,-15.953,M,0.0,*4F 10:06:15.100 01/21/00 293 0
0   49252.771  48987.633 10:06:14.400 01/21/00   0
21 $GPGGA,220634.00,3945.0678306,N,10513.3010105,W,1,27,0.6,1762.044,M,-15.953,M,0.0,*41 10:06:14.100 01/21/00 294 0
0   49278.221  49047.676 10:06:13.400 01/21/00   0
21 $GPGGA,220633.00,3945.0677657,N,10513.3007102,W,1,26,0.6,1762.037,M,-15.953,M,0.0,*4C 10:06:13.100 01/21/00 294 0
3         0.000        0.000 10:06:12.400 01/21/00          8           0          28   4
0   48476.720  49083.335 10:06:12.400 01/21/00   0
21 $GPGGA,220632.00,3945.0677419,N,10513.3006566,W,1,27,0.6,1762.015,M,-15.953,M,0.0,*43 10:06:12.100 01/21/00 294 0
0       0.000  49103.035 10:06:11.400 01/21/00   0
21 $GPGGA,220631.00,3945.0676793,N,10513.3006423,W,1,27,0.6,1761.979,M,-15.953,M,0.0,*40 10:06:11.100 01/21/00 292 0
0       0.000  49263.540 10:06:10.400 01/21/00   0
21 $GPGGA,220630.00,3945.0674420,N,10513.3005424,W,1,27,0.6,1761.912,M,-15.953,M,0.0,*41 10:06:10.100 01/21/00 290 0
0   49464.819  49452.279 10:06:09.400 01/21/00   0
21 $GPGGA,220629.00,3945.0671327,N,10513.3006427,W,1,27,0.6,1761.856,M,-15.953,M,0.0,*4D 10:06:09.100 01/21/00 294 0
0   49471.706  49494.437 10:06:08.400 01/21/00   0
21 $GPGGA,220628.00,3945.0669319,N,10513.3009748,W,1,26,0.6,1761.869,M,-15.953,M,0.0,*40 10:06:08.100 01/21/00 290 0
0   49437.040  49457.390 10:06:07.400 01/21/00   0
21 $GPGGA,220627.00,3945.0668795,N,10513.3013816,W,1,26,0.6,1761.809,M,-15.953,M,0.0,*47 10:06:07.100 01/21/00 296 0
0   49425.217  49446.480 10:06:06.400 01/21/00   0
21 $GPGGA,220626.00,3945.0668092,N,10513.3015607,W,1,26,0.6,1761.762,M,-15.953,M,0.0,*4C 10:06:06.100 01/21/00 299 0
0   49420.473  49437.869 10:06:05.400 01/21/00   0
3         0.000        0.000 10:06:05.100 01/21/00         12           0          27   4
21 $GPGGA,220625.00,3945.0668371,N,10513.3016840,W,1,26,0.6,1761.711,M,-15.953,M,0.0,*4B 10:06:05.100 01/21/00 296 0
0   49407.278  49399.368 10:06:04.400 01/21/00   0
21 $GPGGA,220624.00,3945.0668859,N,10513.3020610,W,1,26,0.6,1761.639,M,-15.953,M,0.0,*4E 10:06:04.100 01/21/00 320 0
0   49392.733  49354.245 10:06:03.400 01/21/00   0
21 $GPGGA,220623.00,3945.0670255,N,10513.3025462,W,1,26,0.6,1761.621,M,-15.953,M,0.0,*4D 10:06:03.100 01/21/00 296 0
0   49407.264  49350.085 10:06:02.400 01/21/00   0
21 $GPGGA,220622.00,3945.0672839,N,10513.3031364,W,1,27,0.6,1761.572,M,-15.953,M,0.0,*4E 10:06:02.100 01/21/00 296 0
0   49481.242  49438.149 10:06:01.400 01/21/00   0
21 $GPGGA,220621.00,3945.0674635,N,10513.3038314,W,1,27,0.6,1761.527,M,-15.952,M,0.0,*46 10:06:01.100 01/21/00 297 0
0   49588.985  49567.763 10:06:00.400 01/21/00   0
21 $GPGGA,220620.00,3945.0676474,N,10513.3044785,W,1,27,0.6,1761.489,M,-15.952,M,0.0,*40 10:06:00.100 01/21/00 333 0
0   49693.731  49691.522 10:05:59.400 01/21/00   0
21 $GPGGA,220619.00,3945.0678148,N,10513.3050743,W,1,27,0.6,1761.469,M,-15.952,M,0.0,*4F 10:05:59.100 01/21/00 308 0
0   49791.600  49806.185 10:05:58.400 01/21/00   0
21 $GPGGA,220618.00,3945.0679765,N,10513.3058078,W,1,26,0.6,1761.401,M,-15.952,M,0.0,*4E 10:05:58.100 01/21/00 323 0
0   49866.272  49893.489 10:05:57.400 01/21/00   0
21 $GPGGA,220617.00,3945.0681335,N,10513.3064905,W,1,25,0.6,1761.374,M,-15.952,M,0.0,*4D 10:05:57.100 01/21/00 310 0
0   49920.050  49937.734 10:05:56.400 01/21/00   0
21 $GPGGA,220616.00,3945.0683109,N,10513.3072540,W,1,27,0.6,1761.352,M,-15.952,M,0.0,*4F 10:05:56.100 01/21/00 321 0
0   49965.753  49985.488 10:05:55.400 01/21/00   0
21 $GPGGA,220615.00,3945.0684587,N,10513.3079772,W,1,27,0.6,1761.351,M,-15.952,M,0.0,*42 10:05:55.100 01/21/00 322 0
0   49997.431  50010.928 10:05:54.400 01/21/00   0
21 $GPGGA,220614.00,3945.0685100,N,10513.3086005,W,1,28,0.5,1761.395,M,-15.952,M,0.0,*4A 10:05:54.100 01/21/00 317 0
0   50015.390  50026.858 10:05:53.400 01/21/00   0
21 $GPGGA,220613.00,3945.0685322,N,10513.3089607,W,1,28,0.5,1761.421,M,-15.952,M,0.0,*4C 10:05:53.100 01/21/00 322 0
3         0.000        0.000 10:05:52.600 01/21/00          7           0          26   4
0   50019.557  50031.989 10:05:52.400 01/21/00   0
21 $GPGGA,220612.00,3945.0685118,N,10513.3090240,W,1,27,0.5,1761.409,M,-15.952,M,0.0,*4C 10:05:52.100 01/21/00 339 0
0   50021.687  50035.899 10:05:51.400 01/21/00   0
21 $GPGGA,220611.00,3945.0684574,N,10513.3090825,W,1,28,0.5,1761.431,M,-15.952,M,0.0,*4D 10:05:51.100 01/21/00 320 0
0   50028.669  50048.481 10:05:50.400 01/21/00   0
21 $GPGGA,220610.00,3945.0683446,N,10513.3092289,W,1,28,0.5,1761.456,M,-15.952,M,0.0,*44 10:05:50.100 01/21/00 318 0
0   50049.166  50067.911 10:05:49.400 01/21/00   0
21 $GPGGA,220609.00,3945.0680835,N,10513.3092379,W,1,28,0.5,1761.505,M,-15.952,M,0.0,*4E 10:05:49.100 01/21/00 318 0
0   50049.095  50072.767 10:05:48.400 01/21/00   0
21 $GPGGA,220608.00,3945.0677957,N,10513.3091212,W,1,28,0.5,1761.594,M,-15.952,M,0.0,*45 10:05:48.100 01/21/00 318 0
0   50044.276  50065.515 10:05:47.400 01/21/00   0
21 $GPGGA,220607.00,3945.0676105,N,10513.3088466,W,1,28,0.5,1761.639,M,-15.952,M,0.0,*4D 10:05:47.100 01/21/00 319 0
0   49910.515  50069.021 10:05:46.400 01/21/00   0
21 $GPGGA,220606.00,3945.0674818,N,10513.3086724,W,1,28,0.5,1761.728,M,-15.952,M,0.0,*41 10:05:46.100 01/21/00 355 0
3         0.000        0.000 10:05:45.700 01/21/00         12           0          25   4
0   49587.876  50044.327 10:05:45.400 01/21/00   0
21 $GPGGA,220605.00,3945.0673617,N,10513.3083734,W,1,29,0.5,1761.802,M,-15.952,M,0.0,*46 10:05:45.100 01/21/00 323 0
0   49413.926  50013.207 10:05:44.400 01/21/00   0
21 $GPGGA,220604.00,3945.0671954,N,10513.3077302,W,1,28,0.5,1761.804,M,-15.952,M,0.0,*40 10:05:44.100 01/21/00 301 0
0       0.000  49962.923 10:05:43.400 01/21/00   0
21 $GPGGA,220603.00,3945.0670606,N,10513.3070185,W,1,27,0.6,1761.890,M,-15.952,M,0.0,*45 10:05:43.100 01/21/00 292 0
0       0.000  49918.442 10:05:42.400 01/21/00   0
21 $GPGGA,220602.00,3945.0669657,N,10513.3062674,W,1,27,0.5,1761.944,M,-15.952,M,0.0,*49 10:05:42.100 01/21/00 297 0
0       0.000  49883.932 10:05:41.400 01/21/00   0
21 $GPGGA,220601.00,3945.0668517,N,10513.3055554,W,1,27,0.6,1761.982,M,-15.952,M,0.0,*40 10:05:41.100 01/21/00 297 0
0       0.000  49825.584 10:05:40.400 01/21/00   0
21 $GPGGA,220600.00,3945.0667054,N,10513.3048796,W,1,26,0.6,1762.069,M,-15.952,M,0.0,*42 10:05:40.100 01/21/00 316 0
0   49783.136  49757.730 10:05:39.400 01/21/00   0
21 $GPGGA,220559.00,3945.0665554,N,10513.3042517,W,1,27,0.6,1762.203,M,-15.952,M,0.0,*44 10:05:39.100 01/21/00 297 0
0   49572.041  49684.120 10:05:38.400 01/21/00   0
21 $GPGGA,220558.00,3945.0663991,N,10513.3035317,W,1,28,0.5,1762.234,M,-15.952,M,0.0,*48 10:05:38.100 01/21/00 297 0
0   49603.890  49599.784 10:05:37.400 01/21/00   0
21 $GPGGA,220557.00,3945.0662480,N,10513.3028492,W,1,28,0.5,1762.313,M,-15.953,M,0.0,*48 10:05:37.100 01/21/00 306 0
0   49554.964  49579.317 10:05:36.400 01/21/00   0
21 $GPGGA,220556.00,3945.0661159,N,10513.3021717,W,1,27,0.6,1762.374,M,-15.953,M,0.0,*41 10:05:36.100 01/21/00 298 0
0   49521.515  49567.263 10:05:35.400 01/21/00   0
21 $GPGGA,220555.00,3945.0659378,N,10513.3016396,W,1,25,0.6,1762.341,M,-15.953,M,0.0,*45 10:05:35.100 01/21/00 298 0
0   49507.344  49550.751 10:05:34.400 01/21/00   0
21 $GPGGA,220554.00,3945.0658919,N,10513.3014989,W,1,26,0.6,1762.334,M,-15.953,M,0.0,*4F 10:05:34.100 01/21/00 295 0
3         0.000        0.000 10:05:33.800 01/21/00          7           0          24   4
0   49479.309  49545.375 10:05:33.400 01/21/00   0
21 $GPGGA,220553.00,3945.0659074,N,10513.3014826,W,1,26,0.6,1762.250,M,-15.953,M,0.0,*4C 10:05:33.100 01/21/00 298 0
0   49467.088  49550.546 10:05:32.400 01/21/00   0
21 $GPGGA,220552.00,3945.0658909,N,10513.3015585,W,1,26,0.6,1762.184,M,-15.953,M,0.0,*40 10:05:32.100 01/21/00 298 0
0   49485.053  49527.308 10:05:31.400 01/21/00   0
21 $GPGGA,220551.00,3945.0656602,N,10513.3014681,W,1,25,0.6,1762.172,M,-15.953,M,0.0,*45 10:05:31.100 01/21/00 298 0
0   49451.252  49492.365 10:05:30.400 01/21/00   0
21 $GPGGA,220550.00,3945.0652699,N,10513.3015314,W,1,26,0.6,1762.191,M,-15.953,M,0.0,*44 10:05:30.100 01/21/00 299 0
0   49457.279  49613.071 10:05:29.400 01/21/00   0
21 $GPGGA,220549.00,3945.0649792,N,10513.3017707,W,1,24,0.6,1762.186,M,-15.953,M,0.0,*4C 10:05:29.100 01/21/00 294 0
0   49413.156  49442.961 10:05:28.400 01/21/00   0
21 $GPGGA,220548.00,3945.0648046,N,10513.3020870,W,1,26,0.6,1762.172,M,-15.953,M,0.0,*40 10:05:28.100 01/21/00 319 0
0   49374.587  49136.386 10:05:27.400 01/21/00   0
21 $GPGGA,220547.00,3945.0647767,N,10513.3023371,W,1,26,0.6,1762.140,M,-15.953,M,0.0,*4C 10:05:27.100 01/21/00 302 0
3         0.000        0.000 10:05:26.600 01/21/00         13           0          23   4
0   49392.391  49273.948 10:05:26.400 01/21/00   0
21 $GPGGA,220546.00,3945.0647959,N,10513.3025622,W,1,25,0.6,1762.094,M,-15.953,M,0.0,*40 10:05:26.100 01/21/00 301 0
0   49460.007  49477.779 10:05:25.400 01/21/00   0
21 $GPGGA,220545.00,3945.0649650,N,10513.3030677,W,1,25,0.6,1762.059,M,-15.952,M,0.0,*4F 10:05:25.100 01/21/00 297 0
0   49528.822  49537.611 10:05:24.400 01/21/00   0
21 $GPGGA,220544.00,3945.0651809,N,10513.3036711,W,1,27,0.6,1761.954,M,-15.952,M,0.0,*47 10:05:24.100 01/21/00 301 0
0   49587.950  49577.148 10:05:23.400 01/21/00   0
21 $GPGGA,220543.00,3945.0653775,N,10513.3044007,W,1,27,0.6,1761.902,M,-15.952,M,0.0,*40 10:05:23.100 01/21/00 301 0
0   49644.636  49635.974 10:05:22.400 01/21/00   0
21 $GPGGA,220542.00,3945.0655568,N,10513.3051378,W,1,28,0.5,1761.893,M,-15.952,M,0.0,*43 10:05:22.100 01/21/00 320 0
0   49701.289  49694.666 10:05:21.400 01/21/00   0
21 $GPGGA,220541.00,3945.0656974,N,10513.3058942,W,1,27,0.5,1761.846,M,-15.952,M,0.0,*4F 10:05:21.100 01/21/00 305 0
0   49760.421  49770.129 10:05:20.400 01/21/00   0
21 $GPGGA,220540.00,3945.0658633,N,10513.3066472,W,1,28,0.5,1761.851,M,-15.952,M,0.0,*46 10:05:20.100 01/21/00 305 0
0   49810.063  49825.041 10:05:19.400 01/21/00   0
21 $GPGGA,220539.00,3945.0660201,N,10513.3072868,W,1,28,0.5,1761.816,M,-15.952,M,0.0,*47 10:05:19.100 01/21/00 302 0
0   49853.044  49862.551 10:05:18.400 01/21/00   0
21 $GPGGA,220538.00,3945.0661884,N,10513.3079611,W,1,27,0.5,1761.847,M,-15.952,M,0.0,*40 10:05:18.100 01/21/00 305 0
0   49891.075  49899.256 10:05:17.400 01/21/00   0
21 $GPGGA,220537.00,3945.0662774,N,10513.3086204,W,1,28,0.5,1761.836,M,-15.952,M,0.0,*45 10:05:17.100 01/21/00 302 0
0   49926.098  49931.820 10:05:16.400 01/21/00   0
21 $GPGGA,220536.00,3945.0663837,N,10513.3092291,W,1,28,0.5,1761.843,M,-15.952,M,0.0,*46 10:05:16.100 01/21/00 322 0
0   49954.949  49971.571 10:05:15.400 01/21/00   0
21 $GPGGA,220535.00,3945.0664665,N,10513.3096866,W,1,28,0.5,1761.871,M,-15.952,M,0.0,*4C 10:05:15.100 01/21/00 301 0
0   49958.745  49977.077 10:05:14.400 01/21/00   0
3         0.000        0.000 10:05:14.300 01/21/00          6           0          22   4
21 $GPGGA,220534.00,3945.0665314,N,10513.3097441,W,1,28,0.5,1761.907,M,-15.952,M,0.0,*47 10:05:14.100 01/21/00 323 0
0   49958.324  49977.660 10:05:13.400 01/21/00   0
21 $GPGGA,220533.00,3945.0665161,N,10513.3097925,W,1,26,0.6,1761.911,M,-15.952,M,0.0,*45 10:05:13.100 01/21/00 323 0
0   49969.871  49996.757 10:05:12.400 01/21/00   0
21 $GPGGA,220532.00,3945.0663257,N,10513.3100519,W,1,28,0.5,1761.904,M,-15.952,M,0.0,*41 10:05:12.100 01/21/00 298 0
0   49991.735  50016.359 10:05:11.400 01/21/00   0
21 $GPGGA,220531.00,3945.0660087,N,10513.3101973,W,1,28,0.5,1761.999,M,-15.952,M,0.0,*4B 10:05:11.100 01/21/00 299 0
0   50010.418  50020.904 10:05:10.400 01/21/00   0
21 $GPGGA,220530.00,3945.0657466,N,10513.3100871,W,1,28,0.5,1762.095,M,-15.952,M,0.0,*41 10:05:10.100 01/21/00 346 0
0   49870.078  50008.897 10:05:09.400 01/21/00   0
21 $GPGGA,220529.00,3945.0655628,N,10513.3098412,W,1,28,0.5,1762.118,M,-15.952,M,0.0,*4E 10:05:09.100 01/21/00 305 0
0   49186.201  50007.607 10:05:08.400 01/21/00   0
21 $GPGGA,220528.00,3945.0655251,N,10513.3096836,W,1,28,0.5,1762.183,M,-15.952,M,0.0,*43 10:05:08.100 01/21/00 296 0
3         0.000        0.000 10:05:07.900 01/21/00         12           0          21   4
0       0.000  49995.530 10:05:07.400 01/21/00   0
21 $GPGGA,220527.00,3945.0654223,N,10513.3093583,W,1,28,0.5,1762.306,M,-15.952,M,0.0,*41 10:05:07.100 01/21/00 319 0
0       0.000  49971.668 10:05:06.400 01/21/00   0
21 $GPGGA,220526.00,3945.0652807,N,10513.3088293,W,1,28,0.5,1762.464,M,-15.952,M,0.0,*45 10:05:06.100 01/21/00 302 0
0       0.000  49925.950 10:05:05.400 01/21/00   0
21 $GPGGA,220525.00,3945.0650970,N,10513.3081163,W,1,28,0.5,1762.681,M,-15.952,M,0.0,*49 10:05:05.100 01/21/00 302 0
0       0.000  49901.021 10:05:04.400 01/21/00   0
21 $GPGGA,220524.00,3945.0649252,N,10513.3073962,W,1,28,0.5,1762.865,M,-15.952,M,0.0,*4B 10:05:04.100 01/21/00 325 0
0   48558.046  49855.756 10:05:03.400 01/21/00   0
21 $GPGGA,220523.00,3945.0647785,N,10513.3066528,W,1,27,0.5,1763.039,M,-15.952,M,0.0,*44 10:05:03.100 01/21/00 301 0
0       0.000  49805.169 10:05:02.400 01/21/00   0
21 $GPGGA,220522.00,3945.0646168,N,10513.3058515,W,1,28,0.5,1763.145,M,-15.952,M,0.0,*47 10:05:02.100 01/21/00 301 0
0       0.000  49797.656 10:05:01.400 01/21/00   0
21 $GPGGA,220521.00,3945.0644381,N,10513.3050796,W,1,28,0.5,1763.263,M,-15.952,M,0.0,*45 10:05:01.100 01/21/00 302 0
0   49521.478  49809.748 10:05:00.400 01/21/00   0
21 $GPGGA,220520.00,3945.0642521,N,10513.3043029,W,1,26,0.6,1763.351,M,-15.952,M,0.0,*42 10:05:00.100 01/21/00 302 0
0   49499.061  49860.104 10:04:59.400 01/21/00   0
21 $GPGGA,220519.00,3945.0640756,N,10513.3035437,W,1,25,0.6,1763.503,M,-15.952,M,0.0,*40 10:04:59.100 01/21/00 302 0
0   48152.530  49810.495 10:04:58.400 01/21/00   0
21 $GPGGA,220518.00,3945.0638957,N,10513.3028410,W,1,26,0.6,1763.596,M,-15.952,M,0.0,*47 10:04:58.100 01/21/00 297 0
0   49637.720  49697.789 10:04:57.400 01/21/00   0
21 $GPGGA,220517.00,3945.0637430,N,10513.3023257,W,1,26,0.6,1763.642,M,-15.953,M,0.0,*4E 10:04:57.100 01/21/00 301 0
0   49513.775  49652.283 10:04:56.400 01/21/00   0
21 $GPGGA,220516.00,3945.0636910,N,10513.3021882,W,1,26,0.6,1763.678,M,-15.953,M,0.0,*48 10:04:56.100 01/21/00 302 0
3         0.000        0.000 10:04:55.800 01/21/00         11           0          20   4
0       0.000  49649.603 10:04:55.400 01/21/00   0
21 $GPGGA,220515.00,3945.0637135,N,10513.3022084,W,1,26,0.6,1763.686,M,-15.953,M,0.0,*49 10:04:55.100 01/21/00 305 0
0       0.000  49641.067 10:04:54.400 01/21/00   0
21 $GPGGA,220514.00,3945.0637157,N,10513.3022047,W,1,26,0.6,1763.724,M,-15.953,M,0.0,*4A 10:04:54.100 01/21/00 307 0
0   49459.018  49629.872 10:04:53.400 01/21/00   0
21 $GPGGA,220513.00,3945.0637110,N,10513.3022158,W,1,26,0.6,1763.866,M,-15.953,M,0.0,*48 10:04:53.100 01/21/00 303 0
0   48259.021  49637.255 10:04:52.400 01/21/00   0
21 $GPGGA,220512.00,3945.0637381,N,10513.3022353,W,1,26,0.6,1764.037,M,-15.953,M,0.0,*41 10:04:52.100 01/21/00 340 0
0   48937.422  49665.453 10:04:51.400 01/21/00   0
21 $GPGGA,220511.00,3945.0637296,N,10513.3023200,W,1,26,0.6,1764.265,M,-15.953,M,0.0,*46 10:04:51.100 01/21/00 307 0
0   48065.813  49644.289 10:04:50.400 01/21/00   0
21 $GPGGA,220510.00,3945.0636390,N,10513.3023037,W,1,26,0.6,1764.476,M,-15.953,M,0.0,*43 10:04:50.100 01/21/00 299 0
0       0.000  49537.835 10:04:49.400 01/21/00   0
21 $GPGGA,220509.00,3945.0633004,N,10513.3022071,W,1,26,0.6,1764.759,M,-15.953,M,0.0,*4D 10:04:49.100 01/21/00 300 0
0   49392.889  49433.372 10:04:48.400 01/21/00   0
21 $GPGGA,220508.00,3945.0628889,N,10513.3023672,W,1,26,0.6,1765.125,M,-15.953,M,0.0,*43 10:04:48.100 01/21/00 305 0
0   49365.051  49413.482 10:04:47.400 01/21/00   0
21 $GPGGA,220507.00,3945.0625132,N,10513.3026739,W,1,26,0.6,1765.512,M,-15.952,M,0.0,*42 10:04:47.100 01/21/00 301 0
0   49390.215  49432.572 10:04:46.400 01/21/00   0
21 $GPGGA,220506.00,3945.0624370,N,10513.3031165,W,1,26,0.6,1765.302,M,-15.952,M,0.0,*48 10:04:46.100 01/21/00 328 0
0   49424.677  49465.193 10:04:45.400 01/21/00   0
3         0.000        0.000 10:04:45.400 01/21/00         11           0          19   4
21 $GPGGA,220505.00,3945.0625633,N,10513.3033098,W,4,26,0.7,1762.310,M,-15.952,M,9.0,0000*40 10:04:45.100 01/21/00 327 0
0   49513.785  49565.500 10:04:44.400 01/21/00   0
21 $GPGGA,220504.00,3945.0626987,N,10513.3037771,W,4,26,0.7,1762.302,M,-15.952,M,8.0,0000*44 10:04:44.100 01/21/00 317 0
0   49649.389  49727.666 10:04:43.400 01/21/00   0
21 $GPGGA,220503.00,3945.0628918,N,10513.3044507,W,4,26,0.7,1762.312,M,-15.952,M,7.0,0000*42 10:04:43.100 01/21/00 325 0
0   49792.654  49927.970 10:04:42.400 01/21/00   0
21 $GPGGA,220502.00,3945.0630789,N,10513.3051780,W,4,27,0.6,1762.269,M,-15.952,M,6.0,0000*49 10:04:42.100 01/21/00 342 0
0   49861.256  50023.558 10:04:41.400 01/21/00   0
21 $GPGGA,220501.00,3945.0632633,N,10513.3059345,W,4,26,0.7,1762.245,M,-15.952,M,5.0,0000*40 10:04:41.100 01/21/00 335 0
0   49831.088  49899.095 10:04:40.400 01/21/00   0
21 $GPGGA,220500.00,3945.0634916,N,10513.3066928,W,4,27,0.6,1762.231,M,-15.952,M,4.0,0000*40 10:04:40.100 01/21/00 363 0
0   49797.907  49809.398 10:04:39.400 01/21/00   0
21 $GPGGA,220459.00,3945.0637165,N,10513.3074164,W,4,28,0.6,1762.262,M,-15.952,M,3.0,0000*4F 10:04:39.100 01/21/00 347 0
0   49803.170  49805.375 10:04:38.400 01/21/00   0
21 $GPGGA,220458.00,3945.0639182,N,10513.3081700,W,4,28,0.6,1762.274,M,-15.952,M,2.0,0000*41 10:04:38.100 01/21/00 344 0
0   49827.567  49836.307 10:04:37.400 01/21/00   0
21 $GPGGA,220457.00,3945.0640821,N,10513.3089523,W,4,28,0.6,1762.303,M,-15.952,M,3.0,0000*4B 10:04:37.100 01/21/00 343 0
0   49854.022  49858.468 10:04:36.400 01/21/00   0
21 $GPGGA,220456.00,3945.0642569,N,10513.3097092,W,4,28,0.6,1762.301,M,-15.952,M,2.0,0000*4A 10:04:36.100 01/21/00 342 0
0   49874.304  49855.383 10:04:35.400 01/21/00   0
21 $GPGGA,220455.00,3945.0644117,N,10513.3103725,W,4,27,0.7,1762.288,M,-15.952,M,3.0,0000*4A 10:04:35.100 01/21/00 331 0
0   49888.364  49865.310 10:04:34.400 01/21/00   0
21 $GPGGA,220454.00,3945.0645493,N,10513.3106798,W,4,28,0.6,1762.272,M,-15.952,M,2.0,0000*4A 10:04:34.100 01/21/00 368 0
3         0.000        0.000 10:04:33.800 01/21/00          6           0          18   4
0   49891.642  49873.690 10:04:33.400 01/21/00   0
21 $GPGGA,220453.00,3945.0645554,N,10513.3107550,W,4,28,0.6,1762.259,M,-15.952,M,1.0,0000*4A 10:04:33.100 01/21/00 339 0
0   49902.639  49899.144 10:04:32.400 01/21/00   0
21 $GPGGA,220452.00,3945.0643744,N,10513.3109039,W,4,27,0.7,1762.266,M,-15.952,M,2.0,0000*4B 10:04:32.100 01/21/00 343 0
0   49934.731  49940.468 10:04:31.400 01/21/00   0
21 $GPGGA,220451.00,3945.0640717,N,10513.3110799,W,4,27,0.7,1762.290,M,-15.952,M,3.0,0000*40 10:04:31.100 01/21/00 339 0
0       0.000  49947.559 10:04:30.400 01/21/00   0
21 $GPGGA,220450.00,3945.0637495,N,10513.3109922,W,4,28,0.6,1762.312,M,-15.952,M,2.0,0000*4A 10:04:30.100 01/21/00 344 0
0       0.000  49893.737 10:04:29.400 01/21/00   0
21 $GPGGA,220449.00,3945.0635440,N,10513.3107377,W,4,28,0.6,1762.348,M,-15.952,M,1.0,0000*40 10:04:29.100 01/21/00 335 0
0       0.000  49898.530 10:04:28.400 01/21/00   0
21 $GPGGA,220448.00,3945.0634934,N,10513.3105867,W,4,28,0.6,1762.345,M,-15.952,M,2.0,0000*48 10:04:28.100 01/21/00 390 0
3         0.000        0.000 10:04:27.900 01/21/00         13           0          17   4
0       0.000  49891.290 10:04:27.400 01/21/00   0
21 $GPGGA,220447.00,3945.0634141,N,10513.3103263,W,4,28,0.6,1762.343,M,-15.952,M,1.0,0000*40 10:04:27.100 01/21/00 347 0
0       0.000  49775.597 10:04:26.400 01/21/00   0
21 $GPGGA,220446.00,3945.0632989,N,10513.3097837,W,4,28,0.6,1762.330,M,-15.952,M,2.0,0000*4B 10:04:26.100 01/21/00 340 0
0       0.000  49774.655 10:04:25.400 01/21/00   0
21 $GPGGA,220445.00,3945.0631267,N,10513.3091680,W,4,28,0.6,1762.347,M,-15.952,M,3.0,0000*45 10:04:25.100 01/21/00 332 0
0       0.000  49910.492 10:04:24.400 01/21/00   0
21 $GPGGA,220444.00,3945.0629627,N,10513.3084651,W,4,28,0.6,1762.332,M,-15.952,M,2.0,0000*46 10:04:24.100 01/21/00 348 0
0   49569.657  49836.978 10:04:23.400 01/21/00   0
21 $GPGGA,220443.00,3945.0627926,N,10513.3077267,W,4,28,0.6,1762.331,M,-15.952,M,1.0,0000*4C 10:04:23.100 01/21/00 338 0
0   48859.861  49834.344 10:04:22.400 01/21/00   0
21 $GPGGA,220442.00,3945.0626190,N,10513.3069900,W,4,27,0.6,1762.322,M,-15.952,M,2.0,0000*42 10:04:22.100 01/21/00 360 0
0       0.000  49839.557 10:04:21.400 01/21/00   0
21 $GPGGA,220441.00,3945.0624396,N,10513.3062802,W,4,27,0.6,1762.327,M,-15.952,M,3.0,0000*4B 10:04:21.100 01/21/00 347 0
0       0.000  49794.868 10:04:20.400 01/21/00   0
21 $GPGGA,220440.00,3945.0622633,N,10513.3055926,W,4,27,0.6,1762.341,M,-15.952,M,2.0,0000*44 10:04:20.100 01/21/00 343 0
0       0.000  49825.684 10:04:19.400 01/21/00   0
21 $GPGGA,220439.00,3945.0620851,N,10513.3048910,W,4,27,0.6,1762.377,M,-15.952,M,1.0,0000*4D 10:04:19.100 01/21/00 317 0
0       0.000  49829.997 10:04:18.400 01/21/00   0
21 $GPGGA,220438.00,3945.0619133,N,10513.3042411,W,4,27,0.6,1762.384,M,-15.952,M,2.0,0000*42 10:04:18.100 01/21/00 319 0
0       0.000  49727.591 10:04:17.400 01/21/00   0
21 $GPGGA,220437.00,3945.0617303,N,10513.3036840,W,4,27,0.6,1762.383,M,-15.952,M,3.0,0000*4F 10:04:17.100 01/21/00 319 0
0       0.000  49648.825 10:04:16.400 01/21/00   0
21 $GPGGA,220436.00,3945.0615949,N,10513.3032916,W,4,26,0.7,1762.388,M,-15.952,M,2.0,0000*44 10:04:16.100 01/21/00 347 0
0       0.000  49632.145 10:04:15.400 01/21/00   0
21 $GPGGA,220435.00,3945.0615525,N,10513.3032572,W,4,26,0.7,1762.386,M,-15.952,M,3.0,0000*40 10:04:15.100 01/21/00 323 0
3         0.000        0.000 10:04:15.100 01/21/00          7           0          16   4
0   44797.284  49624.600 10:04:14.400 01/21/00   0
21 $GPGGA,220434.00,3945.0615761,N,10513.3032528,W,4,26,0.7,1762.386,M,-15.952,M,2.0,0000*4D 10:04:14.100 01/21/00 319 0
0       0.000  49625.791 10:04:13.400 01/21/00   0
21 $GPGGA,220433.00,3945.0615315,N,10513.3032791,W,4,26,0.7,1762.391,M,-15.952,M,3.0,0000*4A 10:04:13.100 01/21/00 315 0
0       0.000  49615.105 10:04:12.400 01/21/00   0
21 $GPGGA,220432.00,3945.0613253,N,10513.3033416,W,4,26,0.7,1762.392,M,-15.952,M,2.0,0000*41 10:04:12.100 01/21/00 323 0
0   49501.319  49534.746 10:04:11.400 01/21/00   0
21 $GPGGA,220431.00,3945.0609838,N,10513.3035259,W,4,26,0.7,1762.398,M,-15.952,M,3.0,0000*4E 10:04:11.100 01/21/00 318 0
0   49439.713  49475.256 10:04:10.400 01/21/00   0
21 $GPGGA,220430.00,3945.0606974,N,10513.3038092,W,4,26,0.7,1762.425,M,-15.952,M,2.0,0000*41 10:04:10.100 01/21/00 367 0
0   49442.406  49478.306 10:04:09.400 01/21/00   0
21 $GPGGA,220429.00,3945.0604971,N,10513.3042054,W,4,26,0.7,1762.410,M,-15.952,M,5.0,0000*48 10:04:09.100 01/21/00 322 0
0   49465.414  49495.606 10:04:08.400 01/21/00   0
21 $GPGGA,220428.00,3945.0605258,N,10513.3044247,W,4,26,0.7,1762.425,M,-15.952,M,4.0,0000*49 10:04:08.100 01/21/00 322 0
3         0.000        0.000 10:04:07.900 01/21/00         11           0          15   4
0   49519.240  49534.456 10:04:07.400 01/21/00   0
21 $GPGGA,220427.00,3945.0606501,N,10513.3047644,W,4,26,0.7,1762.426,M,-15.952,M,3.0,0000*4E 10:04:07.100 01/21/00 346 0
0   49640.352  49681.826 10:04:06.400 01/21/00   0
21 $GPGGA,220426.00,3945.0608722,N,10513.3053767,W,4,26,0.7,1762.408,M,-15.952,M,2.0,0000*4A 10:04:06.100 01/21/00 344 0
0   49822.887  49902.955 10:04:05.400 01/21/00   0
21 $GPGGA,220425.00,3945.0610947,N,10513.3060876,W,4,26,0.7,1762.384,M,-15.952,M,3.0,0000*40 10:04:05.100 01/21/00 338 0
0   49993.138  50253.278 10:04:04.400 01/21/00   0
21 $GPGGA,220424.00,3945.0613155,N,10513.3068451,W,4,27,0.6,1762.401,M,-15.952,M,2.0,0000*43 10:04:04.100 01/21/00 364 0
0   49870.935  49646.107 10:04:03.400 01/21/00   0
21 $GPGGA,220423.00,3945.0615295,N,10513.3075874,W,4,27,0.6,1762.399,M,-15.952,M,3.0,0000*4D 10:04:03.100 01/21/00 347 0
0   49850.802  49852.434 10:04:02.400 01/21/00   0
21 $GPGGA,220422.00,3945.0616933,N,10513.3083430,W,4,26,0.7,1762.399,M,-15.952,M,2.0,0000*4C 10:04:02.100 01/21/00 343 0
0   49875.861  49921.789 10:04:01.400 01/21/00   0
21 $GPGGA,220421.00,3945.0618658,N,10513.3090874,W,4,27,0.6,1762.376,M,-15.952,M,3.0,0000*4D 10:04:01.100 01/21/00 347 0
0   49876.545  49886.565 10:04:00.400 01/21/00   0
21 $GPGGA,220420.00,3945.0620585,N,10513.3098329,W,4,27,0.6,1762.375,M,-15.952,M,2.0,0000*4D 10:04:00.100 01/21/00 347 0
0   49893.462  49889.328 10:03:59.400 01/21/00   0
21 $GPGGA,220419.00,3945.0622720,N,10513.3105684,W,4,28,0.6,1762.353,M,-15.952,M,3.0,0000*45 10:03:59.100 01/21/00 344 0
0   49940.559  49961.393 10:03:58.400 01/21/00   0
21 $GPGGA,220418.00,3945.0624119,N,10513.3111940,W,4,27,0.6,1762.377,M,-15.952,M,2.0,0000*44 10:03:58.100 01/21/00 373 0
0   49957.931  49983.397 10:03:57.400 01/21/00   0
21 $GPGGA,220417.00,3945.0624988,N,10513.3114191,W,4,27,0.6,1762.381,M,-15.952,M,3.0,0000*42 10:03:57.100 01/21/00 327 0
3         0.000        0.000 10:03:56.600 01/21/00          7           0          14   4
0   49956.987  49981.720 10:03:56.400 01/21/00   0
21 $GPGGA,220416.00,3945.0625187,N,10513.3114123,W,4,27,0.6,1762.398,M,-15.952,M,2.0,0000*45 10:03:56.100 01/21/00 347 0
0   49958.643  49985.310 10:03:55.400 01/21/00   0
21 $GPGGA,220415.00,3945.0624983,N,10513.3114518,W,4,27,0.6,1762.395,M,-15.952,M,3.0,0000*4B 10:03:55.100 01/21/00 346 0
0   49970.073  50006.547 10:03:54.400 01/21/00   0
21 $GPGGA,220414.00,3945.0623888,N,10513.3115242,W,4,27,0.6,1762.402,M,-15.952,M,2.0,0000*46 10:03:54.100 01/21/00 325 0
0   49998.256  50059.566 10:03:53.400 01/21/00   0
21 $GPGGA,220413.00,3945.0622310,N,10513.3117021,W,4,27,0.6,1762.382,M,-15.952,M,3.0,0000*41 10:03:53.100 01/21/00 321 0
0       0.000  50045.610 10:03:52.400 01/21/00   0
21 $GPGGA,220412.00,3945.0618938,N,10513.3116989,W,4,27,0.6,1762.376,M,-15.952,M,2.0,0000*49 10:03:52.100 01/21/00 368 0
0       0.000  49988.108 10:03:51.400 01/21/00   0
21 $GPGGA,220411.00,3945.0615994,N,10513.3114975,W,4,27,0.6,1762.408,M,-15.952,M,3.0,0000*4F 10:03:51.100 01/21/00 325 0
0       0.000  49964.476 10:03:50.400 01/21/00   0
21 $GPGGA,220410.00,3945.0614064,N,10513.3113042,W,4,27,0.7,1762.426,M,-15.952,M,2.0,0000*4F 10:03:50.100 01/21/00 322 0
3         0.000        0.000 10:03:49.600 01/21/00         10           0          13   4
0       0.000  49962.473 10:03:49.400 01/21/00   0
21 $GPGGA,220409.00,3945.0612883,N,10513.3108895,W,4,27,0.7,1762.400,M,-15.952,M,3.0,0000*4D 10:03:49.100 01/21/00 346 0
0   49667.114  50016.148 10:03:48.400 01/21/00   0
21 $GPGGA,220408.00,3945.0610894,N,10513.3102693,W,4,28,0.6,1762.397,M,-15.952,M,2.0,0000*4C 10:03:48.100 01/21/00 347 0
0   49919.901  50036.894 10:03:47.400 01/21/00   0
21 $GPGGA,220407.00,3945.0608962,N,10513.3095129,W,4,27,0.7,1762.453,M,-15.952,M,3.0,0000*4B 10:03:47.100 01/21/00 346 0
0   49911.642  49962.536 10:03:46.400 01/21/00   0
21 $GPGGA,220406.00,3945.0607243,N,10513.3087535,W,4,27,0.7,1762.464,M,-15.952,M,2.0,0000*42 10:03:46.100 01/21/00 362 0
0   49648.483  49931.911 10:03:45.400 01/21/00   0
21 $GPGGA,220405.00,3945.0605186,N,10513.3079915,W,4,27,0.7,1762.480,M,-15.952,M,3.0,0000*4D 10:03:45.100 01/21/00 346 0
0   49817.165  49957.994 10:03:44.400 01/21/00   0
21 $GPGGA,220404.00,3945.0602554,N,10513.3072264,W,4,27,0.7,1762.477,M,-15.952,M,2.0,0000*4F 10:03:44.100 01/21/00 360 0
0   44640.397  50284.106 10:03:43.400 01/21/00   0
21 $GPGGA,220403.00,3945.0600410,N,10513.3064196,W,4,27,0.7,1762.458,M,-15.952,M,3.0,0000*4E 10:03:43.100 01/21/00 343 0
0       0.000  50614.292 10:03:42.400 01/21/00   0
21 $GPGGA,220402.00,3945.0598244,N,10513.3055880,W,4,27,0.7,1762.469,M,-15.952,M,2.0,0000*45 10:03:42.100 01/21/00 343 0
0       0.000  50177.865 10:03:41.400 01/21/00   0
21 $GPGGA,220401.00,3945.0596523,N,10513.3048204,W,4,25,0.7,1762.449,M,-15.952,M,3.0,0000*45 10:03:41.100 01/21/00  32 0
0   49543.231  49858.976 10:03:40.400 01/21/00   0
21 $GPGGA,220400.00,3945.0595071,N,10513.3043975,W,4,27,0.6,1762.485,M,-15.952,M,2.0,0000*41 10:03:40.100 01/21/00  73 0
3         0.000        0.000 10:03:39.400 01/21/00          7           0          12   4
0   49581.368  49809.424 10:03:39.400 01/21/00   0
21 $GPGGA,220359.00,3945.0595228,N,10513.3043654,W,4,27,0.7,1762.474,M,-15.952,M,3.0,0000*46 10:03:39.100 01/21/00 331 0
0   48133.716  49806.058 10:03:38.400 01/21/00   0
21 $GPGGA,220358.00,3945.0594672,N,10513.3043398,W,4,26,0.7,1762.466,M,-15.952,M,2.0,0000*4B 10:03:38.100 01/21/00 344 0
0       0.000  49687.804 10:03:37.400 01/21/00   0
21 $GPGGA,220357.00,3945.0591805,N,10513.3042196,W,4,27,0.7,1762.480,M,-15.952,M,3.0,0000*4A 10:03:37.100 01/21/00 336 0
0   49492.383  49529.038 10:03:36.400 01/21/00   0
21 $GPGGA,220356.00,3945.0588063,N,10513.3043137,W,4,26,0.7,1762.466,M,-15.952,M,2.0,0000*49 10:03:36.100 01/21/00 342 0
0   49417.051  49473.667 10:03:35.400 01/21/00   0
21 $GPGGA,220355.00,3945.0585223,N,10513.3045554,W,4,26,0.7,1762.518,M,-15.952,M,1.0,0000*4D 10:03:35.100 01/21/00 347 0
0   49422.368  49478.459 10:03:34.400 01/21/00   0
21 $GPGGA,220354.00,3945.0584156,N,10513.3049314,W,4,26,0.7,1762.500,M,-15.952,M,2.0,0000*48 10:03:34.100 01/21/00 364 0
0   49428.025  49478.659 10:03:33.400 01/21/00   0
3         0.000        0.000 10:03:33.200 01/21/00         12           0          11   4
21 $GPGGA,220353.00,3945.0584194,N,10513.3050754,W,4,26,0.7,1762.529,M,-15.952,M,3.0,0000*43 10:03:33.100 01/21/00 340 0
0   49450.335  49498.252 10:03:32.400 01/21/00   0
21 $GPGGA,220352.00,3945.0584767,N,10513.3053044,W,4,26,0.7,1762.481,M,-15.952,M,2.0,0000*4F 10:03:32.100 01/21/00 347 0
0   49518.129  49553.520 10:03:31.400 01/21/00   0
21 $GPGGA,220351.00,3945.0586651,N,10513.3058791,W,4,26,0.7,1762.520,M,-15.952,M,1.0,0000*47 10:03:31.100 01/21/00 323 0
0   49597.125  49617.420 10:03:30.400 01/21/00   0
21 $GPGGA,220350.00,3945.0588577,N,10513.3065990,W,4,26,0.7,1762.525,M,-15.952,M,2.0,0000*48 10:03:30.100 01/21/00 322 0
0   49670.658  49650.368 10:03:29.400 01/21/00   0
21 $GPGGA,220349.00,3945.0590371,N,10513.3073175,W,4,27,0.7,1762.487,M,-15.952,M,1.0,0000*46 10:03:29.100 01/21/00 333 0
0   49712.804  49641.805 10:03:28.400 01/21/00   0
21 $GPGGA,220348.00,3945.0592297,N,10513.3080640,W,4,27,0.7,1762.497,M,-15.952,M,2.0,0000*43 10:03:28.100 01/21/00 338 0
0   49736.299  49688.054 10:03:27.400 01/21/00   0
21 $GPGGA,220347.00,3945.0594631,N,10513.3087802,W,4,25,0.7,1762.468,M,-15.952,M,3.0,0000*4E 10:03:27.100 01/21/00 347 0
0   49765.970  49758.665 10:03:26.400 01/21/00   0
21 $GPGGA,220346.00,3945.0596887,N,10513.3094440,W,4,26,0.7,1762.500,M,-15.952,M,2.0,0000*4B 10:03:26.100 01/21/00 322 0
0   49797.191  49791.320 10:03:25.400 01/21/00   0
21 $GPGGA,220345.00,3945.0598837,N,10513.3101776,W,4,27,0.6,1762.497,M,-15.952,M,3.0,0000*48 10:03:25.100 01/21/00 323 0
0   49844.075  49836.548 10:03:24.400 01/21/00   0
21 $GPGGA,220344.00,3945.0600294,N,10513.3109435,W,4,26,0.7,1762.487,M,-15.952,M,2.0,0000*44 10:03:24.100 01/21/00 322 0
0   49920.279  49959.836 10:03:23.400 01/21/00   0
21 $GPGGA,220343.00,3945.0601841,N,10513.3116647,W,4,27,0.7,1762.484,M,-15.952,M,3.0,0000*4A 10:03:23.100 01/21/00 323 0
0   49986.472  50114.568 10:03:22.400 01/21/00   0
21 $GPGGA,220342.00,3945.0602907,N,10513.3121828,W,4,27,0.6,1762.447,M,-15.952,M,2.0,0000*47 10:03:22.100 01/21/00 344 0
0   50000.886  50181.317 10:03:21.400 01/21/00   0
21 $GPGGA,220341.00,3945.0603102,N,10513.3123510,W,4,27,0.7,1762.460,M,-15.952,M,3.0,0000*49 10:03:21.100 01/21/00 307 0
3         0.000        0.000 10:03:20.900 01/21/00          5           0          10   4
0   50005.077  50222.876 10:03:20.400 01/21/00   0
21 $GPGGA,220340.00,3945.0602756,N,10513.3123847,W,4,27,0.7,1762.464,M,-15.952,M,2.0,0000*44 10:03:20.100 01/21/00 315 0
0   50004.023  50156.751 10:03:19.400 01/21/00   0
21 $GPGGA,220339.00,3945.0600813,N,10513.3125046,W,4,27,0.7,1762.476,M,-15.952,M,3.0,0000*4B 10:03:19.100 01/21/00 315 0
0   49974.415  50002.152 10:03:18.400 01/21/00   0
21 $GPGGA,220338.00,3945.0596830,N,10513.3124722,W,4,27,0.7,1762.496,M,-15.952,M,2.0,0000*4C 10:03:18.100 01/21/00 342 0
0       0.000  50009.440 10:03:17.400 01/21/00   0
21 $GPGGA,220337.00,3945.0594191,N,10513.3122282,W,4,27,0.7,1762.539,M,-15.952,M,3.0,0000*4F 10:03:17.100 01/21/00 348 0
0       0.000  49975.832 10:03:16.400 01/21/00   0
21 $GPGGA,220336.00,3945.0592856,N,10513.3119830,W,4,27,0.7,1762.525,M,-15.952,M,2.0,0000*4D 10:03:16.100 01/21/00 364 0
3         0.000        0.000 10:03:15.700 01/21/00         11           0           9   4
0       0.000  49932.875 10:03:15.400 01/21/00   0
21 $GPGGA,220335.00,3945.0591634,N,10513.3116094,W,4,27,0.7,1762.537,M,-15.952,M,3.0,0000*4C 10:03:15.100 01/21/00 346 0
0       0.000  49885.926 10:03:14.400 01/21/00   0
21 $GPGGA,220334.00,3945.0590068,N,10513.3109975,W,4,26,0.7,1762.559,M,-15.952,M,2.0,0000*43 10:03:14.100 01/21/00 344 0
0   49639.295  49850.221 10:03:13.400 01/21/00   0
21 $GPGGA,220333.00,3945.0588563,N,10513.3102903,W,4,28,0.6,1762.531,M,-15.952,M,3.0,0000*49 10:03:13.100 01/21/00 331 0
0   48992.162  49800.403 10:03:12.400 01/21/00   0
21 $GPGGA,220332.00,3945.0586963,N,10513.3095624,W,4,26,0.7,1762.546,M,-15.952,M,2.0,0000*41 10:03:12.100 01/21/00 345 0
0       0.000  49731.049 10:03:11.400 01/21/00   0
21 $GPGGA,220331.00,3945.0585376,N,10513.3088129,W,4,26,0.6,1762.587,M,-15.952,M,3.0,0000*44 10:03:11.100 01/21/00 335 0
0   49546.732  49634.937 10:03:10.400 01/21/00   0
21 $GPGGA,220330.00,3945.0583427,N,10513.3081064,W,4,27,0.6,1762.583,M,-15.952,M,2.0,0000*45 10:03:10.100 01/21/00 337 0
0   49513.858  49521.733 10:03:09.400 01/21/00   0
21 $GPGGA,220329.00,3945.0581351,N,10513.3073975,W,4,26,0.7,1762.551,M,-15.952,M,3.0,0000*43 10:03:09.100 01/21/00 348 0
0   49550.714  49454.619 10:03:08.400 01/21/00   0
21 $GPGGA,220328.00,3945.0579395,N,10513.3066741,W,4,27,0.7,1762.541,M,-15.952,M,2.0,0000*41 10:03:08.100 01/21/00 335 0
0   49203.653  49469.442 10:03:07.400 01/21/00   0
21 $GPGGA,220327.00,3945.0577459,N,10513.3059837,W,4,26,0.7,1762.543,M,-15.952,M,3.0,0000*47 10:03:07.100 01/21/00 326 0
0   49519.624  49510.542 10:03:06.400 01/21/00   0
21 $GPGGA,220326.00,3945.0575750,N,10513.3054183,W,4,26,0.7,1762.571,M,-15.952,M,2.0,0000*45 10:03:06.100 01/21/00 326 0
0   49505.228  49519.789 10:03:05.400 01/21/00   0
21 $GPGGA,220325.00,3945.0574802,N,10513.3051273,W,4,27,0.7,1762.599,M,-15.952,M,3.0,0000*40 10:03:05.100 01/21/00 344 0
3         0.000        0.000 10:03:04.400 01/21/00          7           0           8   4
0   49197.906  49517.706 10:03:04.400 01/21/00   0
21 $GPGGA,220324.00,3945.0574663,N,10513.3051253,W,4,27,0.7,1762.605,M,-15.952,M,2.0,0000*4D 10:03:04.100 01/21/00 366 0
0   49497.846  49519.495 10:03:03.400 01/21/00   0
21 $GPGGA,220323.00,3945.0573754,N,10513.3050941,W,4,27,0.7,1762.577,M,-15.952,M,3.0,0000*46 10:03:03.100 01/21/00 339 0
0   49467.577  49507.829 10:03:02.400 01/21/00   0
21 $GPGGA,220322.00,3945.0571462,N,10513.3051058,W,4,27,0.7,1762.572,M,-15.952,M,2.0,0000*47 10:03:02.100 01/21/00 323 0
0   49416.639  49493.611 10:03:01.400 01/21/00   0
21 $GPGGA,220321.00,3945.0569174,N,10513.3052259,W,4,27,0.7,1762.565,M,-15.952,M,3.0,0000*48 10:03:01.100 01/21/00 315 0
0   49391.723  49435.193 10:03:00.400 01/21/00   0
21 $GPGGA,220320.00,3945.0567550,N,10513.3055555,W,4,27,0.7,1762.601,M,-15.952,M,2.0,0000*49 10:03:00.100 01/21/00 325 0
0   49402.016  49447.327 10:02:59.400 01/21/00   0
21 $GPGGA,220319.00,3945.0565835,N,10513.3058657,W,4,27,0.7,1762.583,M,-15.952,M,3.0,0000*4B 10:02:59.100 01/21/00 324 0
0   49408.058  49450.158 10:02:58.400 01/21/00   0
21 $GPGGA,220318.00,3945.0565328,N,10513.3060414,W,4,27,0.7,1762.606,M,-15.952,M,2.0,0000*4C 10:02:58.100 01/21/00 344 0
3         0.000        0.000 10:02:57.700 01/21/00         11           0           7   4
0   49418.137  49457.556 10:02:57.400 01/21/00   0
21 $GPGGA,220317.00,3945.0565636,N,10513.3061607,W,4,27,0.7,1762.592,M,-15.952,M,3.0,0000*47 10:02:57.100 01/21/00 343 0
0   49479.291  49509.129 10:02:56.400 01/21/00   0
21 $GPGGA,220316.00,3945.0567511,N,10513.3066787,W,4,27,0.7,1762.583,M,-15.952,M,2.0,0000*4D 10:02:56.100 01/21/00 325 0
0   49593.179  49603.388 10:02:55.400 01/21/00   0
21 $GPGGA,220315.00,3945.0568887,N,10513.3074019,W,4,27,0.7,1762.596,M,-15.952,M,1.0,0000*47 10:02:55.100 01/21/00 321 0
0   49845.414  49901.025 10:02:54.400 01/21/00   0
21 $GPGGA,220314.00,3945.0570299,N,10513.3081538,W,4,27,0.7,1762.564,M,-15.952,M,2.0,0000*48 10:02:54.100 01/21/00 321 0
0   50234.363  50712.627 10:02:53.400 01/21/00   0
21 $GPGGA,220313.00,3945.0571841,N,10513.3089064,W,4,27,0.7,1762.578,M,-15.952,M,3.0,0000*49 10:02:53.100 01/21/00 327 0
0   50192.491  50514.447 10:02:52.400 01/21/00   0
21 $GPGGA,220312.00,3945.0573575,N,10513.3096319,W,4,28,0.7,1762.603,M,-15.952,M,2.0,0000*46 10:02:52.100 01/21/00 339 0
0   49912.045  49918.794 10:02:51.400 01/21/00   0
21 $GPGGA,220311.00,3945.0575287,N,10513.3103593,W,4,26,0.7,1762.636,M,-15.952,M,3.0,0000*49 10:02:51.100 01/21/00 328 0
0   49808.400  49798.038 10:02:50.400 01/21/00   0
21 $GPGGA,220310.00,3945.0576845,N,10513.3111338,W,4,25,0.7,1762.647,M,-15.952,M,2.0,0000*4F 10:02:50.100 01/21/00 318 0
0   49796.723  49797.160 10:02:49.400 01/21/00   0
21 $GPGGA,220309.00,3945.0578036,N,10513.3118995,W,4,25,0.8,1762.623,M,-15.952,M,3.0,0000*4D 10:02:49.100 01/21/00 327 0
0   49793.958  49788.232 10:02:48.400 01/21/00   0
21 $GPGGA,220308.00,3945.0579024,N,10513.3125635,W,4,23,1.0,1762.598,M,-15.952,M,2.0,0000*48 10:02:48.100 01/21/00 322 0
0   49777.153  49731.011 10:02:47.400 01/21/00   0
21 $GPGGA,220307.00,3945.0580095,N,10513.3129342,W,4,25,0.9,1762.581,M,-15.952,M,3.0,0000*45 10:02:47.100 01/21/00 323 0
3         0.000        0.000 10:02:46.500 01/21/00          6           0           6   4
0   49776.876  49723.844 10:02:46.400 01/21/00   0
21 $GPGGA,220306.00,3945.0580450,N,10513.3129769,W,4,25,0.7,1762.591,M,-15.952,M,2.0,0000*4A 10:02:46.100 01/21/00 323 0
0   49784.189  49722.795 10:02:45.400 01/21/00   0
21 $GPGGA,220305.00,3945.0580438,N,10513.3129873,W,4,24,0.7,1762.579,M,-15.952,M,1.0,0000*47 10:02:45.100 01/21/00 323 0
0   49744.540  49619.794 10:02:44.400 01/21/00   0
21 $GPGGA,220304.00,3945.0579113,N,10513.3130833,W,4,26,0.7,1762.585,M,-15.952,M,2.0,0000*42 10:02:44.100 01/21/00 324 0
0   49778.538  49339.890 10:02:43.400 01/21/00   0
21 $GPGGA,220303.00,3945.0576301,N,10513.3131071,W,4,26,0.7,1762.598,M,-15.952,M,3.0,0000*49 10:02:43.100 01/21/00 317 0
0       0.000  50304.419 10:02:42.400 01/21/00   0
21 $GPGGA,220302.00,3945.0574135,N,10513.3129492,W,4,25,0.7,1762.627,M,-15.952,M,2.0,0000*4A 10:02:42.100 01/21/00 323 0
0       0.000  50185.958 10:02:41.400 01/21/00   0
21 $GPGGA,220301.00,3945.0573111,N,10513.3128349,W,4,26,0.7,1762.614,M,-15.952,M,3.0,0000*4A 10:02:41.100 01/21/00 326 0
3         0.000        0.000 10:02:41.00 01/21/00         10           0           5   4
0       0.000  50293.973 10:02:40.400 01/21/00   0
21 $GPGGA,220300.00,3945.0572336,N,10513.3124707,W,4,26,0.7,1762.602,M,-15.952,M,2.0,0000*49 10:02:40.100 01/21/00 338 0
0       0.000  49956.216 10:02:39.400 01/21/00   0
21 $GPGGA,220259.00,3945.0569978,N,10513.3117582,W,4,28,0.7,1762.628,M,-15.952,M,1.0,0000*44 10:02:39.100 01/21/00 328 0
0       0.000  49829.997 10:02:38.400 01/21/00   0
21 $GPGGA,220258.00,3945.0567605,N,10513.3109661,W,4,28,0.7,1762.645,M,-15.952,M,2.0,0000*47 10:02:38.100 01/21/00 351 0
0       0.000  49822.915 10:02:37.400 01/21/00   0
21 $GPGGA,220257.00,3945.0565585,N,10513.3101237,W,4,27,0.8,1762.653,M,-15.952,M,1.0,0000*4A 10:02:37.100 01/21/00 320 0
0       0.000  49950.066 10:02:36.400 01/21/00   0
21 $GPGGA,220256.00,3945.0563797,N,10513.3092755,W,4,29,0.7,1762.641,M,-15.952,M,2.0,0000*47 10:02:36.100 01/21/00 326 0
0       0.000  50472.259 10:02:35.400 01/21/00   0
21 $GPGGA,220255.00,3945.0561538,N,10513.3084133,W,4,29,0.7,1762.673,M,-15.952,M,1.0,0000*42 10:02:35.100 01/21/00 335 0
0   50223.596  50688.302 10:02:34.400 01/21/00   0
21 $GPGGA,220254.00,3945.0559226,N,10513.3076138,W,4,27,0.7,1762.661,M,-15.952,M,2.0,0000*48 10:02:34.100 01/21/00 343 0
0   49871.268  49974.585 10:02:33.400 01/21/00   0
21 $GPGGA,220253.00,3945.0556790,N,10513.3068758,W,4,26,0.7,1762.676,M,-15.952,M,3.0,0000*41 10:02:33.100 01/21/00  13 0
0   49675.374  49716.834 10:02:32.400 01/21/00   0
21 $GPGGA,220252.00,3945.0555070,N,10513.3064580,W,4,27,0.7,1762.675,M,-15.952,M,2.0,0000*42 10:02:32.100 01/21/00  57 0
0   49638.643  49681.455 10:02:31.400 01/21/00   0
3         0.000        0.000 10:02:31.400 01/21/00          5           0           4   4
21 $GPGGA,220251.00,3945.0555074,N,10513.3064270,W,4,28,0.7,1762.689,M,-15.952,M,1.0,0000*42 10:02:31.100 01/21/00 322 0
0   47572.893  49675.334 10:02:30.400 01/21/00   0
21 $GPGGA,220250.00,3945.0554905,N,10513.3063992,W,4,27,0.7,1762.693,M,-15.952,M,2.0,0000*4A 10:02:30.100 01/21/00 327 0
0   49419.797  49604.851 10:02:29.400 01/21/00   0
21 $GPGGA,220249.00,3945.0551831,N,10513.3063422,W,4,28,0.7,1762.672,M,-15.952,M,1.0,0000*44 10:02:29.100 01/21/00 331 0
0   49413.379  49453.070 10:02:28.400 01/21/00   0
21 $GPGGA,220248.00,3945.0547546,N,10513.3064891,W,4,28,0.7,1762.690,M,-15.952,M,2.0,0000*43 10:02:28.100 01/21/00 347 0
0   49313.857  49338.054 10:02:27.400 01/21/00   0
21 $GPGGA,220247.00,3945.0543997,N,10513.3068805,W,4,26,0.7,1762.699,M,-15.952,M,1.0,0000*4D 10:02:27.100 01/21/00 321 0
0   49295.906  49317.920 10:02:26.400 01/21/00   0
21 $GPGGA,220246.00,3945.0544081,N,10513.3071619,W,4,27,0.8,1762.745,M,-15.952,M,2.0,0000*43 10:02:26.100 01/21/00 331 0
3         0.000        0.000 10:02:25.800 01/21/00         11           0           3   4
0   49331.061  49362.786 10:02:25.400 01/21/00   0
21 $GPGGA,220245.00,3945.0545099,N,10513.3074558,W,4,28,0.7,1762.708,M,-15.952,M,3.0,0000*43 10:02:25.100 01/21/00 323 0
0   49421.888  49462.303 10:02:24.400 01/21/00   0
21 $GPGGA,220244.00,3945.0546859,N,10513.3080772,W,4,28,0.7,1762.734,M,-15.952,M,2.0,0000*4A 10:02:24.100 01/21/00 328 0
0   49525.796  49558.011 10:02:23.400 01/21/00   0
21 $GPGGA,220243.00,3945.0548777,N,10513.3087964,W,4,28,0.7,1762.743,M,-15.952,M,1.0,0000*4D 10:02:23.100 01/21/00 327 0
0   49630.526  49659.925 10:02:22.400 01/21/00   0
21 $GPGGA,220242.00,3945.0550693,N,10513.3095538,W,4,26,0.7,1762.740,M,-15.952,M,2.0,0000*46 10:02:22.100 01/21/00 344 0
0   49693.843  49716.941 10:02:21.400 01/21/00   0
21 $GPGGA,220241.00,3945.0552705,N,10513.3103113,W,4,25,0.8,1762.739,M,-15.952,M,3.0,0000*49 10:02:21.100 01/21/00 326 0
0   49724.367  49741.867 10:02:20.400 01/21/00   0
21 $GPGGA,220240.00,3945.0554890,N,10513.3110717,W,4,26,0.7,1762.715,M,-15.952,M,2.0,0000*4E 10:02:20.100 01/21/00 322 0
0   49737.982  49745.287 10:02:19.400 01/21/00   0
21 $GPGGA,220239.00,3945.0556925,N,10513.3118437,W,4,25,0.8,1762.687,M,-15.952,M,3.0,0000*43 10:02:19.100 01/21/00 325 0
0   49752.737  49758.135 10:02:18.400 01/21/00   0
21 $GPGGA,220238.00,3945.0558503,N,10513.3125917,W,4,26,0.7,1762.666,M,-15.952,M,2.0,0000*47 10:02:18.100 01/21/00 326 0
0   49771.468  49765.573 10:02:17.400 01/21/00   0
21 $GPGGA,220237.00,3945.0559623,N,10513.3132750,W,4,23,0.8,1762.648,M,-15.952,M,1.0,0000*46 10:02:17.100 01/21/00 309 0
0   49793.179  49791.568 10:02:16.400 01/21/00   0
21 $GPGGA,220236.00,3945.0560763,N,10513.3137680,W,4,20,0.9,1762.639,M,-15.952,M,2.0,0000*46 10:02:16.100 01/21/00 318 0
0   49804.488  49801.349 10:02:15.400 01/21/00   0
21 $GPGGA,220235.00,3945.0561305,N,10513.3138489,W,4,24,0.8,1762.646,M,-15.952,M,1.0,0000*4A 10:02:15.100 01/21/00 326 0
3         0.000        0.000 10:02:15.100 01/21/00          6           0           2   4
0   49806.738  49803.994 10:02:14.400 01/21/00   0
21 $GPGGA,220234.00,3945.0561145,N,10513.3138525,W,4,22,0.8,1762.636,M,-15.952,M,2.0,0000*48 10:02:14.100 01/21/00 326 0
0   49620.895  49802.687 10:02:13.400 01/21/00   0
21 $GPGGA,220233.00,3945.0559636,N,10513.3138975,W,4,24,0.7,1762.645,M,-15.952,M,3.0,0000*42 10:02:13.100 01/21/00 327 0
0   49835.871  49844.257 10:02:12.400 01/21/00   0
21 $GPGGA,220232.00,3945.0557581,N,10513.3139912,W,4,23,0.7,1762.660,M,-15.952,M,2.0,0000*43 10:02:12.100 01/21/00 322 0
0   49863.025  49857.519 10:02:11.400 01/21/00   0
21 $GPGGA,220231.00,3945.0553747,N,10513.3138278,W,4,25,0.7,1762.692,M,-15.952,M,1.0,0000*42 10:02:11.100 01/21/00 319 0
0   49851.322  49812.761 10:02:10.400 01/21/00   0
