3         0.000        0.000 10:23:04.800 01/21/00          1           0          33   5
0       0.000  50258.299 10:23:04.400 01/21/00   0
21 $GPGGA,222324.00,3945.0721721,N,10513.3169264,W,4,27,0.6,1760.277,M,-15.952,M,2.0,0000*46 10:23:04.100 01/21/00 284 0
3         0.000        0.000 10:23:03.700 01/21/00          7           0          32   4
0       0.000  50257.032 10:23:03.400 01/21/00   0
21 $GPGGA,222323.00,3945.0718364,N,10513.3166680,W,4,28,0.5,1760.301,M,-15.952,M,3.0,0000*42 10:23:03.100 01/21/00 256 0
0       0.000  50257.558 10:23:02.400 01/21/00   0
21 $GPGGA,222322.00,3945.0714209,N,10513.3162858,W,4,25,0.7,1760.317,M,-15.952,M,2.0,0000*43 10:23:02.100 01/21/00 265 0
0       0.000  50262.331 10:23:01.400 01/21/00   0
21 $GPGGA,222321.00,3945.0709287,N,10513.3158224,W,4,28,0.6,1760.393,M,-15.952,M,3.0,0000*43 10:23:01.100 01/21/00 234 0
0       0.000  50262.494 10:23:00.400 01/21/00   0
21 $GPGGA,222320.00,3945.0704271,N,10513.3154017,W,4,28,0.6,1760.420,M,-15.952,M,2.0,0000*46 10:23:00.100 01/21/00 260 0
0       0.000  50233.452 10:22:59.400 01/21/00   0
21 $GPGGA,222319.00,3945.0699500,N,10513.3150039,W,4,28,0.6,1760.466,M,-15.952,M,3.0,0000*43 10:22:59.100 01/21/00 252 0
0       0.000  50229.551 10:22:58.400 01/21/00   0
21 $GPGGA,222318.00,3945.0695779,N,10513.3146630,W,4,30,0.5,1760.459,M,-15.952,M,2.0,0000*4D 10:22:58.100 01/21/00 281 0
0       0.000  50231.519 10:22:57.400 01/21/00   0
21 $GPGGA,222317.00,3945.0694640,N,10513.3145933,W,4,30,0.5,1760.492,M,-15.952,M,3.0,0000*41 10:22:57.100 01/21/00 242 0
3         0.000        0.000 10:22:56.600 01/21/00          5           0          31   4
0   50212.547  50230.849 10:22:56.400 01/21/00   0
21 $GPGGA,222316.00,3945.0695866,N,10513.3145492,W,4,29,0.6,1760.458,M,-15.952,M,2.0,0000*41 10:22:56.100 01/21/00 265 0
0   50207.774  50217.908 10:22:55.400 01/21/00   0
21 $GPGGA,222315.00,3945.0697318,N,10513.3144420,W,4,28,0.6,1760.437,M,-15.952,M,3.0,0000*43 10:22:55.100 01/21/00 252 0
0   50193.571  50203.403 10:22:54.400 01/21/00   0
21 $GPGGA,222314.00,3945.0699934,N,10513.3143457,W,4,29,0.6,1760.441,M,-15.952,M,2.0,0000*4E 10:22:54.100 01/21/00 260 0
0   50180.010  50185.677 10:22:53.400 01/21/00   0
21 $GPGGA,222313.00,3945.0702346,N,10513.3143961,W,4,29,0.6,1760.396,M,-15.952,M,3.0,0000*41 10:22:53.100 01/21/00 255 0
0   50181.342  50173.074 10:22:52.400 01/21/00   0
21 $GPGGA,222312.00,3945.0703848,N,10513.3145257,W,4,29,0.6,1760.408,M,-15.952,M,2.0,0000*4D 10:22:52.100 01/21/00 260 0
3         0.000        0.000 10:22:51.800 01/21/00          7           0          30   4
0   50200.539  50208.608 10:22:51.400 01/21/00   0
21 $GPGGA,222311.00,3945.0707529,N,10513.3148948,W,4,27,0.6,1760.416,M,-15.952,M,3.0,0000*48 10:22:51.100 01/21/00 255 0
0   50218.368  50224.689 10:22:50.400 01/21/00   0
21 $GPGGA,222310.00,3945.0712266,N,10513.3152985,W,4,27,0.6,1760.382,M,-15.952,M,2.0,0000*40 10:22:50.100 01/21/00 242 0
0   50236.745  50246.581 10:22:49.400 01/21/00   0
21 $GPGGA,222309.00,3945.0717666,N,10513.3156746,W,4,27,0.6,1760.326,M,-15.952,M,3.0,0000*43 10:22:49.100 01/21/00 243 0
0   50249.010  50255.512 10:22:48.400 01/21/00   0
21 $GPGGA,222308.00,3945.0723047,N,10513.3161046,W,4,23,0.6,1760.279,M,-15.952,M,2.0,0000*4D 10:22:48.100 01/21/00 239 0
0   50256.361  50258.451 10:22:47.400 01/21/00   0
21 $GPGGA,222307.00,3945.0728246,N,10513.3164589,W,4,18,0.6,1760.222,M,-15.952,M,3.0,0000*4E 10:22:47.100 01/21/00 236 0
0   50260.663  50258.623 10:22:46.400 01/21/00   0
21 $GPGGA,222306.00,3945.0731589,N,10513.3166952,W,4,23,0.6,1760.226,M,-15.952,M,2.0,0000*46 10:22:46.100 01/21/00 260 0
0   50262.083  50259.736 10:22:45.400 01/21/00   0
3         0.000        0.000 10:22:45.300 01/21/00          6           0          29   4
21 $GPGGA,222305.00,3945.0731738,N,10513.3167061,W,4,25,0.6,1760.243,M,-15.952,M,3.0,0000*41 10:22:45.100 01/21/00 248 0
0   50266.793  50263.831 10:22:44.400 01/21/00   0
21 $GPGGA,222304.00,3945.0732489,N,10513.3166366,W,4,25,0.6,1760.175,M,-15.952,M,2.0,0000*48 10:22:44.100 01/21/00 260 0
0   50268.786  50263.955 10:22:43.400 01/21/00   0
21 $GPGGA,222303.00,3945.0734710,N,10513.3161554,W,4,24,0.6,1760.201,M,-15.952,M,3.0,0000*4A 10:22:43.100 01/21/00 232 0
0   50264.156  50259.609 10:22:42.400 01/21/00   0
21 $GPGGA,222302.00,3945.0736573,N,10513.3157367,W,4,22,0.7,1760.141,M,-15.952,M,2.0,0000*4C 10:22:42.100 01/21/00 314 0
0   50190.875  50275.848 10:22:41.400 01/21/00   0
21 $GPGGA,222301.00,3945.0736492,N,10513.3152472,W,4,26,0.6,1760.171,M,-15.952,M,3.0,0000*40 10:22:41.100 01/21/00 265 0
0       0.000  50281.508 10:22:40.400 01/21/00   0
21 $GPGGA,222300.00,3945.0735539,N,10513.3147637,W,4,27,0.6,1760.231,M,-15.952,M,2.0,0000*42 10:22:40.100 01/21/00 304 0
0       0.000  50276.571 10:22:39.400 01/21/00   0
21 $GPGGA,222259.00,3945.0733601,N,10513.3145947,W,4,27,0.6,1760.208,M,-15.952,M,3.0,0000*40 10:22:39.100 01/21/00 342 0
3         0.000        0.000 10:22:39.100 01/21/00          7           0          28   4
0       0.000  50269.434 10:22:38.400 01/21/00   0
21 $GPGGA,222258.00,3945.0730329,N,10513.3143002,W,4,27,0.6,1760.260,M,-15.952,M,2.0,0000*4C 10:22:38.100 01/21/00 265 0
0       0.000  50265.075 10:22:37.400 01/21/00   0
21 $GPGGA,222257.00,3945.0726046,N,10513.3139134,W,4,27,0.6,1760.262,M,-15.952,M,3.0,0000*44 10:22:37.100 01/21/00 257 0
0   45999.383  50261.974 10:22:36.400 01/21/00   0
21 $GPGGA,222256.00,3945.0721186,N,10513.3134920,W,4,29,0.6,1760.307,M,-15.952,M,2.0,0000*42 10:22:36.100 01/21/00 268 0
0   49632.275  50252.174 10:22:35.400 01/21/00   0
21 $GPGGA,222255.00,3945.0716305,N,10513.3130801,W,4,27,0.6,1760.313,M,-15.952,M,3.0,0000*40 10:22:35.100 01/21/00 255 0
0   50084.694  50243.744 10:22:34.400 01/21/00   0
21 $GPGGA,222254.00,3945.0711610,N,10513.3127133,W,4,28,0.6,1760.362,M,-15.952,M,2.0,0000*41 10:22:34.100 01/21/00 268 0
0   50209.863  50219.677 10:22:33.400 01/21/00   0
21 $GPGGA,222253.00,3945.0707872,N,10513.3124579,W,4,30,0.5,1760.411,M,-15.952,M,3.0,0000*4A 10:22:33.100 01/21/00 248 0
0   49893.401  50214.730 10:22:32.400 01/21/00   0
3         0.000        0.000 10:22:32.200 01/21/00          5           0          27   4
21 $GPGGA,222252.00,3945.0707347,N,10513.3124312,W,4,29,0.6,1760.434,M,-15.952,M,2.0,0000*40 10:22:32.100 01/21/00 264 0
0   50206.600  50211.884 10:22:31.400 01/21/00   0
21 $GPGGA,222251.00,3945.0707377,N,10513.3122112,W,4,29,0.5,1760.428,M,-15.952,M,3.0,0000*4B 10:22:31.100 01/21/00 247 0
0   50128.313  50210.780 10:22:30.400 01/21/00   0
21 $GPGGA,222250.00,3945.0708947,N,10513.3121105,W,4,28,0.6,1760.407,M,-15.952,M,2.0,0000*47 10:22:30.100 01/21/00 264 0
0   50196.094  50201.398 10:22:29.400 01/21/00   0
21 $GPGGA,222249.00,3945.0712060,N,10513.3119548,W,4,30,0.5,1760.428,M,-15.952,M,1.0,0000*4A 10:22:29.100 01/21/00 260 0
0   50181.974  50189.488 10:22:28.400 01/21/00   0
21 $GPGGA,222248.00,3945.0715375,N,10513.3119982,W,4,27,0.6,1760.339,M,-15.952,M,2.0,0000*40 10:22:28.100 01/21/00 284 0
0   50186.360  50191.937 10:22:27.400 01/21/00   0
21 $GPGGA,222247.00,3945.0717677,N,10513.3121947,W,4,28,0.5,1760.343,M,-15.952,M,3.0,0000*48 10:22:27.100 01/21/00 252 0
3         0.000        0.000 10:22:26.400 01/21/00          8           0          26   4
0   50201.355  50202.735 10:22:26.400 01/21/00   0
21 $GPGGA,222246.00,3945.0720979,N,10513.3124260,W,4,29,0.6,1760.337,M,-15.952,M,2.0,0000*47 10:22:26.100 01/21/00 264 0
0   50219.471  50226.341 10:22:25.400 01/21/00   0
21 $GPGGA,222245.00,3945.0724727,N,10513.3127590,W,4,28,0.6,1760.339,M,-15.952,M,3.0,0000*40 10:22:25.100 01/21/00 261 0
0   50236.163  50243.488 10:22:24.400 01/21/00   0
21 $GPGGA,222244.00,3945.0729047,N,10513.3131808,W,4,28,0.6,1760.295,M,-15.952,M,2.0,0000*40 10:22:24.100 01/21/00 263 0
0   50249.476  50252.887 10:22:23.400 01/21/00   0
21 $GPGGA,222243.00,3945.0733158,N,10513.3136257,W,4,27,0.6,1760.256,M,-15.952,M,1.0,0000*47 10:22:23.100 01/21/00 325 0
0   50261.603  50266.105 10:22:22.400 01/21/00   0
21 $GPGGA,222242.00,3945.0736735,N,10513.3140071,W,4,26,0.6,1760.236,M,-15.952,M,2.0,0000*4D 10:22:22.100 01/21/00 264 0
0   50270.915  50276.805 10:22:21.400 01/21/00   0
21 $GPGGA,222241.00,3945.0740223,N,10513.3143073,W,4,28,0.6,1760.172,M,-15.952,M,3.0,0000*40 10:22:21.100 01/21/00 235 0
0   50275.294  50281.795 10:22:20.400 01/21/00   0
21 $GPGGA,222240.00,3945.0743437,N,10513.3144310,W,4,27,0.6,1760.187,M,-15.952,M,2.0,0000*44 10:22:20.100 01/21/00 268 0
0   50276.091  50280.398 10:22:19.400 01/21/00   0
3         0.000        0.000 10:22:19.200 01/21/00         10           0          25   4
21 $GPGGA,222239.00,3945.0743579,N,10513.3144886,W,4,25,0.6,1760.191,M,-15.952,M,1.0,0000*43 10:22:19.100 01/21/00 243 0
0   50275.727  50281.457 10:22:18.400 01/21/00   0
21 $GPGGA,222238.00,3945.0743060,N,10513.3145059,W,4,27,0.6,1760.181,M,-15.952,M,2.0,0000*44 10:22:18.100 01/21/00 268 0
0   50275.871  50281.565 10:22:17.400 01/21/00   0
21 $GPGGA,222237.00,3945.0743129,N,10513.3144593,W,4,29,0.5,1760.163,M,-15.952,M,3.0,0000*45 10:22:17.100 01/21/00 248 0
0   50275.649  50281.043 10:22:16.400 01/21/00   0
21 $GPGGA,222236.00,3945.0743689,N,10513.3144571,W,4,27,0.5,1760.166,M,-15.952,M,2.0,0000*4F 10:22:16.100 01/21/00 259 0
0   50275.909  50281.912 10:22:15.400 01/21/00   0
21 $GPGGA,222235.00,3945.0744307,N,10513.3144450,W,4,27,0.5,1760.156,M,-15.952,M,3.0,0000*48 10:22:15.100 01/21/00 270 0
0   50276.649  50282.555 10:22:14.400 01/21/00   0
21 $GPGGA,222234.00,3945.0744745,N,10513.3143489,W,4,28,0.5,1760.232,M,-15.952,M,2.0,0000*47 10:22:14.100 01/21/00 268 0
0   50276.794  50280.720 10:22:13.400 01/21/00   0
21 $GPGGA,222233.00,3945.0744780,N,10513.3141037,W,4,28,0.5,1760.153,M,-15.952,M,3.0,0000*4F 10:22:13.100 01/21/00 263 0
0   50281.763  50284.077 10:22:12.400 01/21/00   0
21 $GPGGA,222232.00,3945.0747218,N,10513.3136802,W,4,27,0.5,1760.175,M,-15.952,M,2.0,0000*4D 10:22:12.100 01/21/00 263 0
0   50285.791  50288.703 10:22:11.400 01/21/00   0
21 $GPGGA,222231.00,3945.0749026,N,10513.3129757,W,4,25,0.6,1760.159,M,-15.952,M,3.0,0000*40 10:22:11.100 01/21/00 267 0
0   50149.852  50288.730 10:22:10.400 01/21/00   0
21 $GPGGA,222230.00,3945.0748186,N,10513.3123419,W,4,24,0.8,1760.144,M,-15.952,M,2.0,0000*4A 10:22:10.100 01/21/00 284 0
0   49915.788  50293.094 10:22:09.400 01/21/00   0
21 $GPGGA,222229.00,3945.0744960,N,10513.3121425,W,4,26,0.6,1760.156,M,-15.952,M,3.0,0000*4D 10:22:09.100 01/21/00 329 0
3         0.000        0.000 10:22:09.100 01/21/00          6           0          24   4
0   49613.785  50297.705 10:22:08.400 01/21/00   0
21 $GPGGA,222228.00,3945.0740930,N,10513.3118206,W,4,26,0.7,1760.248,M,-15.952,M,2.0,0000*4C 10:22:08.100 01/21/00 271 0
0       0.000  50294.490 10:22:07.400 01/21/00   0
21 $GPGGA,222227.00,3945.0736688,N,10513.3114390,W,4,28,0.6,1760.223,M,-15.952,M,1.0,0000*4D 10:22:07.100 01/21/00 302 0
0   49798.136  50278.578 10:22:06.400 01/21/00   0
21 $GPGGA,222226.00,3945.0731869,N,10513.3110223,W,4,26,0.6,1760.230,M,-15.952,M,2.0,0000*48 10:22:06.100 01/21/00 244 0
0       0.000  50256.002 10:22:05.400 01/21/00   0
21 $GPGGA,222225.00,3945.0727291,N,10513.3106182,W,4,27,0.6,1760.242,M,-15.952,M,3.0,0000*4B 10:22:05.100 01/21/00 237 0
0   50224.306  50234.361 10:22:04.400 01/21/00   0
21 $GPGGA,222224.00,3945.0722454,N,10513.3102904,W,4,28,0.6,1760.329,M,-15.952,M,2.0,0000*40 10:22:04.100 01/21/00 289 0
0   49574.578  50222.023 10:22:03.400 01/21/00   0
21 $GPGGA,222223.00,3945.0719965,N,10513.3101735,W,4,29,0.6,1760.322,M,-15.952,M,3.0,0000*44 10:22:03.100 01/21/00 248 0
3         0.000        0.000 10:22:02.600 01/21/00         10           0          23   4
0   50212.007  50218.340 10:22:02.400 01/21/00   0
21 $GPGGA,222222.00,3945.0719903,N,10513.3101127,W,4,26,0.6,1760.324,M,-15.952,M,2.0,0000*48 10:22:02.100 01/21/00 261 0
0   50035.443  50223.716 10:22:01.400 01/21/00   0
21 $GPGGA,222221.00,3945.0721280,N,10513.3101050,W,4,27,0.7,1760.327,M,-15.952,M,3.0,0000*43 10:22:01.100 01/21/00 253 0
0       0.000  50218.092 10:22:00.400 01/21/00   0
21 $GPGGA,222220.00,3945.0724318,N,10513.3099202,W,4,26,0.6,1760.298,M,-15.952,M,2.0,0000*46 10:22:00.100 01/21/00 267 0
0   50187.438  50196.968 10:21:59.400 01/21/00   0
21 $GPGGA,222219.00,3945.0725970,N,10513.3097823,W,4,25,0.8,1760.250,M,-15.952,M,1.0,0000*44 10:21:59.100 01/21/00 336 0
0   50178.934  50188.997 10:21:58.400 01/21/00   0
21 $GPGGA,222218.00,3945.0726538,N,10513.3096927,W,4,24,0.7,1760.271,M,-15.952,M,2.0,0000*4C 10:21:58.100 01/21/00 344 0
0   50179.853  50188.555 10:21:57.400 01/21/00   0
21 $GPGGA,222217.00,3945.0726607,N,10513.3096999,W,4,23,0.7,1760.274,M,-15.952,M,1.0,0000*48 10:21:57.100 01/21/00 306 0
0   50181.061  50189.728 10:21:56.400 01/21/00   0
21 $GPGGA,222216.00,3945.0726623,N,10513.3096997,W,4,23,0.7,1760.283,M,-15.952,M,2.0,0000*4A 10:21:56.100 01/21/00 347 0
0   50180.294  50189.096 10:21:55.400 01/21/00   0
21 $GPGGA,222215.00,3945.0726925,N,10513.3097154,W,4,24,0.7,1760.272,M,-15.952,M,3.0,0000*4E 10:21:55.100 01/21/00 315 0
0   50187.563  50196.912 10:21:54.400 01/21/00   0
21 $GPGGA,222214.00,3945.0728359,N,10513.3098588,W,4,21,0.7,1760.260,M,-15.952,M,2.0,0000*4D 10:21:54.100 01/21/00 360 0
0   50198.416  50206.250 10:21:53.400 01/21/00   0
21 $GPGGA,222213.00,3945.0730051,N,10513.3100465,W,4,23,0.7,1760.173,M,-15.952,M,1.0,0000*4A 10:21:53.100 01/21/00 310 0
3         0.000        0.000 10:21:52.800 01/21/00          8           0          22   4
0   50210.532  50215.574 10:21:52.400 01/21/00   0
21 $GPGGA,222212.00,3945.0733217,N,10513.3102707,W,4,23,0.7,1760.189,M,-15.952,M,2.0,0000*4B 10:21:52.100 01/21/00 264 0
0   50227.555  50235.885 10:21:51.400 01/21/00   0
21 $GPGGA,222211.00,3945.0736574,N,10513.3105320,W,4,25,0.6,1760.259,M,-15.952,M,3.0,0000*41 10:21:51.100 01/21/00 244 0
0   50248.345  50257.640 10:21:50.400 01/21/00   0
21 $GPGGA,222210.00,3945.0740993,N,10513.3108942,W,4,22,0.6,1760.130,M,-15.952,M,2.0,0000*4D 10:21:50.100 01/21/00 240 0
0   50268.897  50277.571 10:21:49.400 01/21/00   0
21 $GPGGA,222209.00,3945.0744968,N,10513.3112992,W,5,25,0.6,1760.225,M,-15.952,M,3.0,0000*43 10:21:49.100 01/21/00 260 0
0   50286.268  50293.231 10:21:48.400 01/21/00   0
21 $GPGGA,222208.00,3945.0749267,N,10513.3116583,W,5,22,0.7,1760.190,M,-15.952,M,2.0,0000*49 10:21:48.100 01/21/00 332 0
0   50301.318  50297.872 10:21:47.400 01/21/00   0
21 $GPGGA,222207.00,3945.0752957,N,10513.3119241,W,5,23,0.7,1760.161,M,-15.952,M,1.0,0000*4E 10:21:47.100 01/21/00 322 0
0   50317.573  50304.905 10:21:46.400 01/21/00   0
21 $GPGGA,222206.00,3945.0756174,N,10513.3120766,W,5,25,0.6,1760.149,M,-15.952,M,2.0,0000*46 10:21:46.100 01/21/00 395 0
0   50324.590  50310.011 10:21:45.400 01/21/00   0
21 $GPGGA,222205.00,3945.0756682,N,10513.3121222,W,5,20,0.8,1760.205,M,-15.952,M,3.0,0000*4E 10:21:45.100 01/21/00 301 0
3         0.000        0.000 10:21:44.800 01/21/00          6           0          21   4
0   50330.612  50314.916 10:21:44.400 01/21/00   0
21 $GPGGA,222204.00,3945.0756619,N,10513.3121445,W,5,22,0.7,1760.213,M,-15.952,M,2.0,0000*41 10:21:44.100 01/21/00 330 0
0   50329.106  50312.395 10:21:43.400 01/21/00   0
21 $GPGGA,222203.00,3945.0757019,N,10513.3120547,W,4,25,0.6,1760.151,M,-15.952,M,1.0,0000*42 10:21:43.100 01/21/00 342 0
0   50336.912  50317.724 10:21:42.400 01/21/00   0
21 $GPGGA,222202.00,3945.0759899,N,10513.3116566,W,4,26,0.6,1760.090,M,-15.952,M,2.0,0000*47 10:21:42.100 01/21/00 269 0
0   49162.501  50421.295 10:21:41.400 01/21/00   0
21 $GPGGA,222201.00,3945.0762404,N,10513.3109920,W,4,25,0.7,1760.041,M,-15.952,M,3.0,0000*4B 10:21:41.100 01/21/00 259 0
0       0.000  50664.394 10:21:40.400 01/21/00   0
21 $GPGGA,222200.00,3945.0762377,N,10513.3103449,W,4,25,0.6,1760.061,M,-15.952,M,2.0,0000*43 10:21:40.100 01/21/00 263 0
0       0.000  50562.405 10:21:39.400 01/21/00   0
21 $GPGGA,222159.00,3945.0760159,N,10513.3100402,W,4,23,0.7,1760.033,M,-15.952,M,3.0,0000*4D 10:21:39.100 01/21/00 268 0
3         0.000        0.000 10:21:38.900 01/21/00          6           0          20   4
0   48660.895  50391.629 10:21:38.400 01/21/00   0
21 $GPGGA,222158.00,3945.0755906,N,10513.3096855,W,4,23,0.7,1760.110,M,-15.952,M,2.0,0000*49 10:21:38.100 01/21/00 268 0
0   48218.382  50312.437 10:21:37.400 01/21/00   0
21 $GPGGA,222157.00,3945.0751083,N,10513.3092693,W,4,21,0.7,1760.147,M,-15.952,M,3.0,0000*47 10:21:37.100 01/21/00 270 0
0   50098.944  50283.611 10:21:36.400 01/21/00   0
21 $GPGGA,222156.00,3945.0745939,N,10513.3088305,W,4,25,0.6,1760.160,M,-15.952,M,2.0,0000*4B 10:21:36.100 01/21/00 265 0
0   49764.427  50263.779 10:21:35.400 01/21/00   0
21 $GPGGA,222155.00,3945.0740543,N,10513.3084271,W,4,25,0.7,1760.173,M,-15.952,M,3.0,0000*40 10:21:35.100 01/21/00 264 0
0   50085.078  50238.561 10:21:34.400 01/21/00   0
21 $GPGGA,222154.00,3945.0735784,N,10513.3079993,W,4,25,0.7,1760.178,M,-15.952,M,2.0,0000*45 10:21:34.100 01/21/00 265 0
0   47995.992  50212.871 10:21:33.400 01/21/00   0
21 $GPGGA,222153.00,3945.0732506,N,10513.3077779,W,4,28,0.6,1760.230,M,-15.952,M,3.0,0000*4B 10:21:33.100 01/21/00 256 0
3         0.000        0.000 10:21:32.500 01/21/00          6           0          19   4
0       0.000  50208.603 10:21:32.400 01/21/00   0
21 $GPGGA,222152.00,3945.0732089,N,10513.3077541,W,4,28,0.6,1760.245,M,-15.952,M,2.0,0000*42 10:21:32.100 01/21/00 264 0
0   50048.118  50210.249 10:21:31.400 01/21/00   0
21 $GPGGA,222151.00,3945.0733186,N,10513.3077091,W,4,27,0.7,1760.254,M,-15.952,M,3.0,0000*49 10:21:31.100 01/21/00 260 0
0       0.000  50216.750 10:21:30.400 01/21/00   0
21 $GPGGA,222150.00,3945.0737293,N,10513.3078220,W,4,25,0.6,1760.200,M,-15.952,M,2.0,0000*4F 10:21:30.100 01/21/00 264 0
0   50194.608  50203.544 10:21:29.400 01/21/00   0
21 $GPGGA,222149.00,3945.0739745,N,10513.3077260,W,4,28,0.6,1760.118,M,-15.952,M,3.0,0000*4A 10:21:29.100 01/21/00 269 0
0   50190.865  50199.975 10:21:28.400 01/21/00   0
21 $GPGGA,222148.00,3945.0741157,N,10513.3076548,W,4,27,0.6,1760.142,M,-15.952,M,2.0,0000*4C 10:21:28.100 01/21/00 295 0
0   50195.944  50203.792 10:21:27.400 01/21/00   0
3         0.000        0.000 10:21:27.100 01/21/00          8           0          18   4
21 $GPGGA,222147.00,3945.0742234,N,10513.3077317,W,4,23,0.7,1760.128,M,-15.952,M,1.0,0000*41 10:21:27.100 01/21/00 268 0
0   50210.641  50216.942 10:21:26.400 01/21/00   0
21 $GPGGA,222146.00,3945.0746072,N,10513.3079869,W,4,25,0.6,1760.072,M,-15.952,M,2.0,0000*42 10:21:26.100 01/21/00 269 0
0   50226.014  50230.587 10:21:25.400 01/21/00   0
21 $GPGGA,222145.00,3945.0749952,N,10513.3083002,W,4,26,0.6,1760.097,M,-15.952,M,3.0,0000*4C 10:21:25.100 01/21/00 268 0
0   50242.507  50248.109 10:21:24.400 01/21/00   0
21 $GPGGA,222144.00,3945.0754036,N,10513.3086619,W,4,25,0.6,1760.090,M,-15.952,M,2.0,0000*46 10:21:24.100 01/21/00 269 0
0   50257.891  50256.765 10:21:23.400 01/21/00   0
21 $GPGGA,222143.00,3945.0758094,N,10513.3090216,W,4,28,0.6,1760.033,M,-15.952,M,3.0,0000*4C 10:21:23.100 01/21/00 260 0
0   50276.572  50266.806 10:21:22.400 01/21/00   0
21 $GPGGA,222142.00,3945.0762519,N,10513.3094231,W,4,25,0.6,1760.016,M,-15.952,M,2.0,0000*4E 10:21:22.100 01/21/00 275 0
0   50300.268  50286.523 10:21:21.400 01/21/00   0
21 $GPGGA,222141.00,3945.0766506,N,10513.3097325,W,4,24,0.7,1759.946,M,-15.952,M,3.0,0000*47 10:21:21.100 01/21/00 248 0
0   50319.811  50296.736 10:21:20.400 01/21/00   0
21 $GPGGA,222140.00,3945.0768889,N,10513.3098773,W,4,21,0.7,1759.937,M,-15.952,M,2.0,0000*48 10:21:20.100 01/21/00 271 0
0   50322.773  50298.582 10:21:19.400 01/21/00   0
3         0.000        0.000 10:21:19.300 01/21/00          7           0          17   4
21 $GPGGA,222139.00,3945.0768887,N,10513.3099066,W,4,23,0.6,1759.964,M,-15.952,M,1.0,0000*4C 10:21:19.100 01/21/00 269 0
0   50315.824  50293.471 10:21:18.400 01/21/00   0
21 $GPGGA,222138.00,3945.0768605,N,10513.3098680,W,4,28,0.6,1759.959,M,-15.952,M,2.0,0000*40 10:21:18.100 01/21/00 247 0
0   50318.899  50298.034 10:21:17.400 01/21/00   0
21 $GPGGA,222137.00,3945.0769583,N,10513.3096438,W,4,25,0.6,1759.922,M,-15.952,M,3.0,0000*4C 10:21:17.100 01/21/00 310 0
0   50328.156  50303.846 10:21:16.400 01/21/00   0
21 $GPGGA,222136.00,3945.0772799,N,10513.3091891,W,4,24,0.7,1759.906,M,-15.952,M,2.0,0000*41 10:21:16.100 01/21/00 268 0
0   50325.297  50285.186 10:21:15.400 01/21/00   0
21 $GPGGA,222135.00,3945.0774603,N,10513.3084902,W,4,28,0.6,1759.888,M,-15.952,M,3.0,0000*42 10:21:15.100 01/21/00 274 0
0   50083.404  50241.482 10:21:14.400 01/21/00   0
21 $GPGGA,222134.00,3945.0772779,N,10513.3078373,W,4,26,0.6,1759.926,M,-15.952,M,2.0,0000*4C 10:21:14.100 01/21/00 248 0
0   50267.436  50239.904 10:21:13.400 01/21/00   0
21 $GPGGA,222133.00,3945.0769391,N,10513.3075675,W,4,27,0.6,1759.997,M,-15.952,M,3.0,0000*47 10:21:13.100 01/21/00 242 0
0   49037.990  50253.039 10:21:12.400 01/21/00   0
3         0.000        0.000 10:21:12.400 01/21/00          6           0          16   4
21 $GPGGA,222132.00,3945.0766099,N,10513.3073120,W,4,25,0.6,1760.020,M,-15.952,M,2.0,0000*4F 10:21:12.100 01/21/00 269 0
0       0.000  50261.976 10:21:11.400 01/21/00   0
21 $GPGGA,222131.00,3945.0762317,N,10513.3069148,W,4,28,0.6,1760.042,M,-15.952,M,3.0,0000*40 10:21:11.100 01/21/00 268 0
0       0.000  50264.721 10:21:10.400 01/21/00   0
21 $GPGGA,222130.00,3945.0757655,N,10513.3064876,W,4,25,0.6,1760.027,M,-15.952,M,2.0,0000*42 10:21:10.100 01/21/00 269 0
0   48361.806  50255.462 10:21:09.400 01/21/00   0
21 $GPGGA,222129.00,3945.0752942,N,10513.3060590,W,4,28,0.6,1760.072,M,-15.952,M,3.0,0000*4B 10:21:09.100 01/21/00 248 0
0       0.000  50237.638 10:21:08.400 01/21/00   0
21 $GPGGA,222128.00,3945.0748742,N,10513.3056713,W,4,30,0.6,1760.110,M,-15.952,M,2.0,0000*4E 10:21:08.100 01/21/00 272 0
0   49701.660  50228.338 10:21:07.400 01/21/00   0
21 $GPGGA,222127.00,3945.0746387,N,10513.3054970,W,4,29,0.6,1760.150,M,-15.952,M,1.0,0000*44 10:21:07.100 01/21/00 260 0
0       0.000  50227.591 10:21:06.400 01/21/00   0
3         0.000        0.000 10:21:06.200 01/21/00          6           0          15   4
21 $GPGGA,222126.00,3945.0746419,N,10513.3054865,W,4,29,0.6,1760.153,M,-15.952,M,2.0,0000*40 10:21:06.100 01/21/00 273 0
0       0.000  50227.543 10:21:05.400 01/21/00   0
21 $GPGGA,222125.00,3945.0747038,N,10513.3055053,W,4,30,0.6,1760.138,M,-15.952,M,3.0,0000*4D 10:21:05.100 01/21/00 252 0
0   50226.267  50232.038 10:21:04.400 01/21/00   0
21 $GPGGA,222124.00,3945.0748966,N,10513.3056280,W,4,28,0.6,1760.106,M,-15.952,M,2.0,0000*4B 10:21:04.100 01/21/00 285 0
0   49920.379  50227.969 10:21:03.400 01/21/00   0
21 $GPGGA,222123.00,3945.0750221,N,10513.3053901,W,4,30,0.6,1760.126,M,-15.952,M,3.0,0000*40 10:21:03.100 01/21/00 250 0
0   50209.414  50219.518 10:21:02.400 01/21/00   0
21 $GPGGA,222122.00,3945.0751987,N,10513.3051727,W,4,28,0.6,1760.066,M,-15.952,M,2.0,0000*42 10:21:02.100 01/21/00 247 0
0   50217.183  50219.842 10:21:01.400 01/21/00   0
21 $GPGGA,222121.00,3945.0754360,N,10513.3051700,W,4,27,0.6,1760.062,M,-15.952,M,3.0,0000*48 10:21:01.100 01/21/00 244 0
0   50224.097  50225.768 10:21:00.400 01/21/00   0
3         0.000        0.000 10:21:00.100 01/21/00          7           0          14   4
21 $GPGGA,222120.00,3945.0756562,N,10513.3053967,W,4,27,0.6,1760.049,M,-15.952,M,2.0,0000*4A 10:21:00.100 01/21/00 267 0
0   50225.760  50222.049 10:20:59.400 01/21/00   0
21 $GPGGA,222119.00,3945.0759916,N,10513.3057774,W,4,28,0.6,1760.028,M,-15.952,M,1.0,0000*43 10:20:59.100 01/21/00 255 0
0   50216.116  50127.430 10:20:58.400 01/21/00   0
21 $GPGGA,222118.00,3945.0764402,N,10513.3062216,W,4,25,0.7,1759.988,M,-15.952,M,2.0,0000*45 10:20:58.100 01/21/00 264 0
0   50265.459  50398.617 10:20:57.400 01/21/00   0
21 $GPGGA,222117.00,3945.0769341,N,10513.3066306,W,4,27,0.6,1759.987,M,-15.952,M,3.0,0000*4E 10:20:57.100 01/21/00 263 0
0   50257.593  50252.171 10:20:56.400 01/21/00   0
21 $GPGGA,222116.00,3945.0773948,N,10513.3070230,W,4,27,0.6,1759.967,M,-15.952,M,2.0,0000*4B 10:20:56.100 01/21/00 274 0
0   50236.034  50223.483 10:20:55.400 01/21/00   0
21 $GPGGA,222115.00,3945.0778318,N,10513.3073576,W,4,25,0.6,1759.894,M,-15.952,M,3.0,0000*44 10:20:55.100 01/21/00 327 0
0   50226.824  50211.187 10:20:54.400 01/21/00   0
21 $GPGGA,222114.00,3945.0781216,N,10513.3075936,W,4,23,0.7,1759.912,M,-15.952,M,2.0,0000*4B 10:20:54.100 01/21/00 360 0
0   50227.408  50210.142 10:20:53.400 01/21/00   0
3         0.000        0.000 10:20:53.200 01/21/00          8           0          13   4
21 $GPGGA,222113.00,3945.0781235,N,10513.3076430,W,4,23,0.7,1759.876,M,-15.952,M,1.0,0000*45 10:20:53.100 01/21/00 364 0
0   50229.873  50214.544 10:20:52.400 01/21/00   0
21 $GPGGA,222112.00,3945.0780433,N,10513.3075778,W,4,25,0.7,1759.865,M,-15.952,M,2.0,0000*4E 10:20:52.100 01/21/00 381 0
0   50237.374  50226.278 10:20:51.400 01/21/00   0
21 $GPGGA,222111.00,3945.0779745,N,10513.3073589,W,4,27,0.6,1759.861,M,-15.952,M,3.0,0000*45 10:20:51.100 01/21/00 378 0
0   50235.527  50220.806 10:20:50.400 01/21/00   0
21 $GPGGA,222110.00,3945.0782618,N,10513.3070110,W,4,27,0.7,1759.877,M,-15.952,M,2.0,0000*49 10:20:50.100 01/21/00 361 0
0   50224.172  50206.493 10:20:49.400 01/21/00   0
21 $GPGGA,222109.00,3945.0785294,N,10513.3066532,W,4,26,0.7,1759.849,M,-15.952,M,1.0,0000*4A 10:20:49.100 01/21/00 344 0
0   50212.681  50186.000 10:20:48.400 01/21/00   0
21 $GPGGA,222108.00,3945.0787893,N,10513.3062512,W,4,24,0.6,1759.849,M,-15.952,M,2.0,0000*42 10:20:48.100 01/21/00 380 0
0   50196.772  50155.977 10:20:47.400 01/21/00   0
21 $GPGGA,222107.00,3945.0788577,N,10513.3058912,W,4,28,0.6,1759.861,M,-15.952,M,1.0,0000*45 10:20:47.100 01/21/00 363 0
0   50156.679  50110.238 10:20:46.400 01/21/00   0
21 $GPGGA,222106.00,3945.0786815,N,10513.3057333,W,4,25,0.7,1759.892,M,-15.952,M,2.0,0000*46 10:20:46.100 01/21/00 355 0
0   49951.251  50120.012 10:20:45.400 01/21/00   0
3         0.000        0.000 10:20:45.100 01/21/00          6           0          12   4
21 $GPGGA,222105.00,3945.0784125,N,10513.3054051,W,4,28,0.6,1759.853,M,-15.952,M,3.0,0000*49 10:20:45.100 01/21/00 355 0
0   49745.401  50150.617 10:20:44.400 01/21/00   0
21 $GPGGA,222104.00,3945.0780320,N,10513.3050401,W,4,25,0.7,1759.908,M,-15.952,M,2.0,0000*4C 10:20:44.100 01/21/00 363 0
0   50209.910  50197.603 10:20:43.400 01/21/00   0
21 $GPGGA,222103.00,3945.0775983,N,10513.3046570,W,4,25,0.7,1759.969,M,-15.953,M,1.0,0000*47 10:20:43.100 01/21/00 363 0
0   50264.130  50264.112 10:20:42.400 01/21/00   0
21 $GPGGA,222102.00,3945.0770903,N,10513.3042575,W,4,25,0.7,1759.965,M,-15.953,M,2.0,0000*45 10:20:42.100 01/21/00 372 0
0   50302.506  50310.347 10:20:41.400 01/21/00   0
21 $GPGGA,222101.00,3945.0765898,N,10513.3038632,W,4,24,0.7,1759.952,M,-15.953,M,3.0,0000*48 10:20:41.100 01/21/00 356 0
0   50312.348  50322.569 10:20:40.400 01/21/00   0
21 $GPGGA,222100.00,3945.0761229,N,10513.3035195,W,4,27,0.6,1760.000,M,-15.953,M,2.0,0000*4D 10:20:40.100 01/21/00   1 0
0   50308.682  50327.950 10:20:39.400 01/21/00   0
21 $GPGGA,222059.00,3945.0758020,N,10513.3033043,W,4,28,0.6,1760.060,M,-15.953,M,1.0,0000*47 10:20:39.100 01/21/00 392 0
3         0.000        0.000 10:20:38.400 01/21/00         13           0          11   4
0       0.000  50323.941 10:20:38.400 01/21/00   0
21 $GPGGA,222058.00,3945.0757467,N,10513.3032407,W,4,27,0.6,1760.064,M,-15.953,M,2.0,0000*43 10:20:38.100 01/21/00 398 0
0       0.000  50314.509 10:20:37.400 01/21/00   0
21 $GPGGA,222057.00,3945.0757676,N,10513.3032214,W,4,28,0.6,1760.054,M,-15.953,M,1.0,0000*45 10:20:37.100 01/21/00 372 0
0       0.000  50324.435 10:20:36.400 01/21/00   0
21 $GPGGA,222056.00,3945.0757666,N,10513.3033114,W,4,27,0.6,1760.039,M,-15.953,M,2.0,0000*40 10:20:36.100 01/21/00 393 0
0       0.000  50373.226 10:20:35.400 01/21/00   0
21 $GPGGA,222055.00,3945.0759136,N,10513.3034556,W,4,25,0.8,1760.036,M,-15.953,M,3.0,0000*48 10:20:35.100 01/21/00 336 0
0   50337.372  50466.261 10:20:34.400 01/21/00   0
21 $GPGGA,222054.00,3945.0761861,N,10513.3034096,W,4,26,0.7,1759.982,M,-15.953,M,2.0,0000*41 10:20:34.100 01/21/00 398 0
0   50458.145  50542.503 10:20:33.400 01/21/00   0
21 $GPGGA,222053.00,3945.0763957,N,10513.3032515,W,4,25,0.7,1759.975,M,-15.953,M,1.0,0000*40 10:20:33.100 01/21/00 377 0
0   50454.559  50544.566 10:20:32.400 01/21/00   0
21 $GPGGA,222052.00,3945.0765177,N,10513.3030759,W,4,26,0.7,1759.961,M,-15.953,M,2.0,0000*40 10:20:32.100 01/21/00 394 0
0   50436.378  50491.937 10:20:31.400 01/21/00   0
21 $GPGGA,222051.00,3945.0765574,N,10513.3030350,W,4,26,0.7,1759.949,M,-15.953,M,3.0,0000*42 10:20:31.100 01/21/00 377 0
0   50454.214  50498.221 10:20:30.400 01/21/00   0
21 $GPGGA,222050.00,3945.0765536,N,10513.3030184,W,4,26,0.7,1759.955,M,-15.953,M,2.0,0000*42 10:20:30.100 01/21/00 382 0
0   50458.476  50503.306 10:20:29.400 01/21/00   0
21 $GPGGA,222049.00,3945.0765480,N,10513.3030080,W,4,26,0.7,1759.958,M,-15.953,M,1.0,0000*4D 10:20:29.100 01/21/00 356 0
0   50432.298  50467.468 10:20:28.400 01/21/00   0
21 $GPGGA,222048.00,3945.0765726,N,10513.3030048,W,4,26,0.7,1759.972,M,-15.953,M,2.0,0000*4C 10:20:28.100 01/21/00 374 0
0   50405.084  50366.538 10:20:27.400 01/21/00   0
21 $GPGGA,222047.00,3945.0767650,N,10513.3030905,W,4,24,0.7,1759.981,M,-15.953,M,1.0,0000*4C 10:20:27.100 01/21/00 339 0
0   50433.098  50505.070 10:20:26.400 01/21/00   0
3         0.000        0.000 10:20:26.300 01/21/00          7           0          10   4
21 $GPGGA,222046.00,3945.0770137,N,10513.3033557,W,4,24,0.7,1759.942,M,-15.953,M,2.0,0000*49 10:20:26.100 01/21/00 354 0
0   50486.894  50539.019 10:20:25.400 01/21/00   0
21 $GPGGA,222045.00,3945.0773529,N,10513.3037338,W,4,23,0.7,1759.905,M,-15.953,M,3.0,0000*4C 10:20:25.100 01/21/00 323 0
0   50489.199  50554.904 10:20:24.400 01/21/00   0
21 $GPGGA,222044.00,3945.0777556,N,10513.3041204,W,4,22,0.7,1759.929,M,-15.953,M,2.0,0000*40 10:20:24.100 01/21/00 319 0
0   50421.715  50473.308 10:20:23.400 01/21/00   0
21 $GPGGA,222043.00,3945.0781651,N,10513.3044763,W,4,23,0.7,1759.870,M,-15.953,M,1.0,0000*44 10:20:23.100 01/21/00 318 0
0   50285.636  50289.517 10:20:22.400 01/21/00   0
21 $GPGGA,222042.00,3945.0786140,N,10513.3048201,W,4,23,0.8,1759.833,M,-15.953,M,2.0,0000*43 10:20:22.100 01/21/00 347 0
0   50153.790  50129.639 10:20:21.400 01/21/00   0
21 $GPGGA,222041.00,3945.0790413,N,10513.3051352,W,4,18,0.8,1759.795,M,-15.952,M,3.0,0000*40 10:20:21.100 01/21/00 294 0
0   50091.342  50016.967 10:20:20.400 01/21/00   0
21 $GPGGA,222040.00,3945.0794040,N,10513.3053608,W,4,22,0.7,1759.823,M,-15.952,M,2.0,0000*4A 10:20:20.100 01/21/00  50 0
0   50078.914  50003.664 10:20:19.400 01/21/00   0
3         0.000        0.000 10:20:19.200 01/21/00          7           0           9   4
21 $GPGGA,222039.00,3945.0794271,N,10513.3053823,W,4,18,0.8,1759.827,M,-15.952,M,3.0,0000*40 10:20:19.100 01/21/00 370 0
0   50076.453  49995.521 10:20:18.400 01/21/00   0
21 $GPGGA,222038.00,3945.0793424,N,10513.3053234,W,4,19,0.8,1759.873,M,-15.952,M,2.0,0000*4D 10:20:18.100 01/21/00  17 0
0   50096.970  50039.704 10:20:17.400 01/21/00   0
21 $GPGGA,222037.00,3945.0793600,N,10513.3052028,W,4,24,0.7,1759.807,M,-15.952,M,1.0,0000*49 10:20:17.100 01/21/00 335 0
0   50089.218  50024.656 10:20:16.400 01/21/00   0
21 $GPGGA,222036.00,3945.0796781,N,10513.3048767,W,4,26,0.6,1759.692,M,-15.953,M,2.0,0000*41 10:20:16.100 01/21/00 373 0
0   50058.879  50027.854 10:20:15.400 01/21/00   0
21 $GPGGA,222035.00,3945.0800042,N,10513.3043027,W,4,23,0.7,1759.707,M,-15.953,M,3.0,0000*4A 10:20:15.100 01/21/00 244 0
0   49664.267  49987.491 10:20:14.400 01/21/00   0
21 $GPGGA,222034.00,3945.0800597,N,10513.3036243,W,4,24,0.7,1759.692,M,-15.953,M,2.0,0000*4F 10:20:14.100 01/21/00 245 0
0       0.000  49923.416 10:20:13.400 01/21/00   0
21 $GPGGA,222033.00,3945.0798861,N,10513.3032238,W,4,25,0.7,1759.714,M,-15.953,M,3.0,0000*45 10:20:13.100 01/21/00 242 0
0       0.000  49875.363 10:20:12.400 01/21/00   0
21 $GPGGA,222032.00,3945.0796565,N,10513.3031330,W,4,26,0.6,1759.747,M,-15.953,M,2.0,0000*4C 10:20:12.100 01/21/00 250 0
3         0.000        0.000 10:20:12.00 01/21/00          7           0           8   4
0       0.000  49750.934 10:20:11.400 01/21/00   0
21 $GPGGA,222031.00,3945.0792659,N,10513.3027888,W,4,27,0.6,1759.725,M,-15.953,M,3.0,0000*4C 10:20:11.100 01/21/00 265 0
0       0.000  49730.258 10:20:10.400 01/21/00   0
21 $GPGGA,222030.00,3945.0787730,N,10513.3023788,W,4,26,0.7,1759.776,M,-15.953,M,2.0,0000*4B 10:20:10.100 01/21/00 361 0
0       0.000  50425.588 10:20:09.400 01/21/00   0
21 $GPGGA,222029.00,3945.0782614,N,10513.3019368,W,4,28,0.6,1759.788,M,-15.953,M,3.0,0000*4D 10:20:09.100 01/21/00 247 0
0       0.000  51067.246 10:20:08.400 01/21/00   0
21 $GPGGA,222028.00,3945.0777787,N,10513.3014949,W,4,26,0.6,1759.899,M,-15.953,M,2.0,0000*49 10:20:08.100 01/21/00 375 0
0   50896.779  51135.982 10:20:07.400 01/21/00   0
21 $GPGGA,222027.00,3945.0773905,N,10513.3011395,W,4,27,0.6,1759.930,M,-15.953,M,1.0,0000*48 10:20:07.100 01/21/00 365 0
0   50882.338  51071.951 10:20:06.400 01/21/00   0
21 $GPGGA,222026.00,3945.0772120,N,10513.3010128,W,4,27,0.6,1759.964,M,-15.953,M,2.0,0000*40 10:20:06.100 01/21/00 399 0
0       0.000  51115.202 10:20:05.400 01/21/00   0
3         0.000        0.000 10:20:05.400 01/21/00          5           0           7   4
21 $GPGGA,222025.00,3945.0772220,N,10513.3009796,W,4,26,0.6,1759.961,M,-15.953,M,3.0,0000*4E 10:20:05.100 01/21/00 363 0
0   50313.379  51001.673 10:20:04.400 01/21/00   0
21 $GPGGA,222024.00,3945.0773160,N,10513.3010138,W,4,27,0.6,1759.950,M,-15.953,M,2.0,0000*41 10:20:04.100 01/21/00 400 0
0       0.000  50771.290 10:20:03.400 01/21/00   0
21 $GPGGA,222023.00,3945.0775210,N,10513.3009539,W,4,27,0.6,1759.914,M,-15.953,M,3.0,0000*48 10:20:03.100 01/21/00 281 0
0   50748.200  50812.995 10:20:02.400 01/21/00   0
21 $GPGGA,222022.00,3945.0777280,N,10513.3008091,W,4,26,0.6,1759.888,M,-15.953,M,2.0,0000*40 10:20:02.100 01/21/00 358 0
0   50989.414  51204.221 10:20:01.400 01/21/00   0
21 $GPGGA,222021.00,3945.0779273,N,10513.3008040,W,4,26,0.6,1759.875,M,-15.953,M,3.0,0000*4E 10:20:01.100 01/21/00 327 0
0   51285.908  51995.098 10:20:00.400 01/21/00   0
21 $GPGGA,222020.00,3945.0781287,N,10513.3010074,W,4,26,0.6,1759.845,M,-15.953,M,2.0,0000*4F 10:20:00.100 01/21/00 248 0
3         0.000        0.000 10:20:00.00 01/21/00          7           0           6   4
0   51531.826  53370.770 10:19:59.400 01/21/00   0
21 $GPGGA,222019.00,3945.0784755,N,10513.3013091,W,4,26,0.6,1759.854,M,-15.953,M,1.0,0000*41 10:19:59.100 01/21/00 252 0
0   51114.171  51763.764 10:19:58.400 01/21/00   0
21 $GPGGA,222018.00,3945.0788561,N,10513.3015871,W,4,27,0.6,1759.772,M,-15.953,M,2.0,0000*40 10:19:58.100 01/21/00 302 0
0   50638.832  50711.534 10:19:57.400 01/21/00   0
21 $GPGGA,222017.00,3945.0792499,N,10513.3018755,W,4,27,0.6,1759.784,M,-15.953,M,3.0,0000*4E 10:19:57.100 01/21/00 263 0
0   50343.882  50355.793 10:19:56.400 01/21/00   0
21 $GPGGA,222016.00,3945.0796702,N,10513.3022447,W,4,24,0.6,1759.777,M,-15.953,M,2.0,0000*4D 10:19:56.100 01/21/00 252 0
0   50138.807  50071.319 10:19:55.400 01/21/00   0
21 $GPGGA,222015.00,3945.0800531,N,10513.3026646,W,4,25,0.7,1759.732,M,-15.953,M,3.0,0000*4B 10:19:55.100 01/21/00 256 0
0   50023.128  49944.959 10:19:54.400 01/21/00   0
21 $GPGGA,222014.00,3945.0804194,N,10513.3029681,W,4,25,0.7,1759.701,M,-15.953,M,2.0,0000*40 10:19:54.100 01/21/00 253 0
0   50003.061  49931.006 10:19:53.400 01/21/00   0
21 $GPGGA,222013.00,3945.0805817,N,10513.3030858,W,4,25,0.7,1759.704,M,-15.953,M,3.0,0000*42 10:19:53.100 01/21/00 281 0
3         0.000        0.000 10:19:52.400 01/21/00         10           0           5   4
0   50007.590  49938.702 10:19:52.400 01/21/00   0
21 $GPGGA,222012.00,3945.0805753,N,10513.3031104,W,4,22,0.7,1759.698,M,-15.953,M,2.0,0000*4F 10:19:52.100 01/21/00 245 0
0   50016.938  49954.944 10:19:51.400 01/21/00   0
21 $GPGGA,222011.00,3945.0805147,N,10513.3031065,W,4,26,0.6,1759.730,M,-15.953,M,3.0,0000*4E 10:19:51.100 01/21/00 263 0
0   50032.280  49965.205 10:19:50.400 01/21/00   0
21 $GPGGA,222010.00,3945.0805611,N,10513.3029174,W,4,26,0.6,1759.655,M,-15.953,M,2.0,0000*40 10:19:50.100 01/21/00 256 0
0   50003.129  49897.362 10:19:49.400 01/21/00   0
21 $GPGGA,222009.00,3945.0806347,N,10513.3025422,W,4,29,0.6,1759.656,M,-15.953,M,3.0,0000*4A 10:19:49.100 01/21/00 253 0
0   50037.173  49980.565 10:19:48.400 01/21/00   0
21 $GPGGA,222008.00,3945.0808632,N,10513.3021460,W,4,25,0.7,1759.661,M,-15.953,M,2.0,0000*48 10:19:48.100 01/21/00 255 0
0   50125.809  50097.404 10:19:47.400 01/21/00   0
21 $GPGGA,222007.00,3945.0810424,N,10513.3020350,W,4,22,0.8,1759.671,M,-15.953,M,3.0,0000*46 10:19:47.100 01/21/00 251 0
0   49527.419  50182.954 10:19:46.400 01/21/00   0
21 $GPGGA,222006.00,3945.0812319,N,10513.3016252,W,4,26,0.6,1759.617,M,-15.953,M,2.0,0000*41 10:19:46.100 01/21/00 286 0
0   96193.540  50163.239 10:19:45.400 01/21/00   0
21 $GPGGA,222005.00,3945.0813083,N,10513.3012462,W,4,26,0.6,1759.673,M,-15.953,M,3.0,0000*41 10:19:45.100 01/21/00 251 0
0       0.000  50127.343 10:19:44.400 01/21/00   0
21 $GPGGA,222004.00,3945.0812315,N,10513.3011459,W,4,27,0.6,1759.661,M,-15.953,M,2.0,0000*45 10:19:44.100 01/21/00 274 0
0       0.000  50125.075 10:19:43.400 01/21/00   0
3         0.000        0.000 10:19:43.100 01/21/00          8           0           4   4
21 $GPGGA,222003.00,3945.0809943,N,10513.3009720,W,4,27,0.6,1759.647,M,-15.953,M,3.0,0000*40 10:19:43.100 01/21/00 267 0
0       0.000  50124.545 10:19:42.400 01/21/00   0
21 $GPGGA,222002.00,3945.0806617,N,10513.3007056,W,4,26,0.6,1759.697,M,-15.953,M,2.0,0000*45 10:19:42.100 01/21/00 252 0
0       0.000  50126.909 10:19:41.400 01/21/00   0
21 $GPGGA,222001.00,3945.0802862,N,10513.3003318,W,4,27,0.6,1759.752,M,-15.953,M,3.0,0000*4B 10:19:41.100 01/21/00 273 0
0       0.000  50133.960 10:19:40.400 01/21/00   0
21 $GPGGA,222000.00,3945.0799471,N,10513.2999472,W,4,27,0.6,1759.735,M,-15.953,M,2.0,0000*49 10:19:40.100 01/21/00 298 0
0   45395.352  50151.198 10:19:39.400 01/21/00   0
21 $GPGGA,221959.00,3945.0795861,N,10513.2995335,W,4,27,0.6,1759.784,M,-15.953,M,3.0,0000*4D 10:19:39.100 01/21/00 272 0
0       0.000  50186.156 10:19:38.400 01/21/00   0
21 $GPGGA,221958.00,3945.0792496,N,10513.2990613,W,4,26,0.6,1759.755,M,-15.953,M,2.0,0000*47 10:19:38.100 01/21/00 281 0
0       0.000  50225.286 10:19:37.400 01/21/00   0
21 $GPGGA,221957.00,3945.0789459,N,10513.2986516,W,4,29,0.6,1759.797,M,-15.953,M,3.0,0000*40 10:19:37.100 01/21/00 281 0
0   44084.891  50256.594 10:19:36.400 01/21/00   0
21 $GPGGA,221956.00,3945.0787661,N,10513.2984253,W,4,27,0.6,1759.825,M,-15.953,M,2.0,0000*4B 10:19:36.100 01/21/00  15 0
0       0.000  50267.881 10:19:35.400 01/21/00   0
3         0.000        0.000 10:19:35.200 01/21/00          9           0           3   4
21 $GPGGA,221955.00,3945.0787202,N,10513.2984071,W,4,27,0.6,1759.820,M,-15.953,M,3.0,0000*4F 10:19:35.100 01/21/00 393 0
0       0.000  50286.328 10:19:34.400 01/21/00   0
21 $GPGGA,221954.00,3945.0786304,N,10513.2984017,W,4,27,0.6,1759.861,M,-15.953,M,2.0,0000*4C 10:19:34.100 01/21/00 399 0
0       0.000  50299.749 10:19:33.400 01/21/00   0
21 $GPGGA,221953.00,3945.0786592,N,10513.2983744,W,4,26,0.6,1759.862,M,-15.953,M,1.0,0000*45 10:19:33.100 01/21/00 380 0
0       0.000  50293.963 10:19:32.400 01/21/00   0
21 $GPGGA,221952.00,3945.0786508,N,10513.2983731,W,4,26,0.6,1759.866,M,-15.953,M,2.0,0000*42 10:19:32.100 01/21/00 399 0
0       0.000  50343.566 10:19:31.400 01/21/00   0
21 $GPGGA,221951.00,3945.0786626,N,10513.2984132,W,4,27,0.6,1759.853,M,-15.953,M,3.0,0000*4A 10:19:31.100 01/21/00 389 0
0   50456.551  50408.227 10:19:30.400 01/21/00   0
21 $GPGGA,221950.00,3945.0788561,N,10513.2985120,W,4,28,0.6,1759.833,M,-15.953,M,2.0,0000*4F 10:19:30.100 01/21/00   6 0
0   50350.536  50326.184 10:19:29.400 01/21/00   0
21 $GPGGA,221949.00,3945.0790985,N,10513.2985483,W,4,27,0.6,1759.783,M,-15.953,M,1.0,0000*4C 10:19:29.100 01/21/00 361 0
0   50297.316  50278.212 10:19:28.400 01/21/00   0
21 $GPGGA,221948.00,3945.0793285,N,10513.2985166,W,4,26,0.6,1759.812,M,-15.953,M,2.0,0000*4E 10:19:28.100 01/21/00 396 0
0   50295.737  50278.353 10:19:27.400 01/21/00   0
21 $GPGGA,221947.00,3945.0794545,N,10513.2985955,W,4,27,0.7,1759.807,M,-15.953,M,3.0,0000*40 10:19:27.100 01/21/00 256 0
0   50295.822  50279.457 10:19:26.400 01/21/00   0
3         0.000        0.000 10:19:26.300 01/21/00          9           0           2   4
21 $GPGGA,221946.00,3945.0796243,N,10513.2987473,W,4,25,0.7,1759.782,M,-15.953,M,2.0,0000*48 10:19:26.100 01/21/00 259 0
0   50291.987  50278.258 10:19:25.400 01/21/00   0
21 $GPGGA,221945.00,3945.0799260,N,10513.2989761,W,4,27,0.7,1759.808,M,-15.953,M,3.0,0000*45 10:19:25.100 01/21/00 249 0
0   50278.529  50260.092 10:19:24.400 01/21/00   0
21 $GPGGA,221944.00,3945.0802988,N,10513.2993272,W,4,25,0.7,1759.770,M,-15.953,M,2.0,0000*4B 10:19:24.100 01/21/00 259 0
0   50256.487  50236.321 10:19:23.400 01/21/00   0
21 $GPGGA,221943.00,3945.0806885,N,10513.2996554,W,4,26,0.7,1759.766,M,-15.953,M,3.0,0000*47 10:19:23.100 01/21/00 251 0
0   50249.341  50235.735 10:19:22.400 01/21/00   0
21 $GPGGA,221942.00,3945.0810129,N,10513.2998976,W,4,27,0.7,1759.698,M,-15.953,M,2.0,0000*4C 10:19:22.100 01/21/00 276 0
0   50242.862  50229.428 10:19:21.400 01/21/00   0
21 $GPGGA,221941.00,3945.0812565,N,10513.3000932,W,4,24,0.8,1759.666,M,-15.953,M,3.0,0000*44 10:19:21.100 01/21/00 260 0
0   50228.812  50218.282 10:19:20.400 01/21/00   0
21 $GPGGA,221940.00,3945.0815102,N,10513.3004701,W,4,25,0.7,1759.618,M,-15.953,M,2.0,0000*4B 10:19:20.100 01/21/00 251 0
0   50218.181  50210.350 10:19:19.400 01/21/00   0
21 $GPGGA,221939.00,3945.0817355,N,10513.3008131,W,4,24,0.7,1759.643,M,-15.953,M,3.0,0000*40 10:19:19.100 01/21/00 258 0
0   50213.393  50207.964 10:19:18.400 01/21/00   0
21 $GPGGA,221938.00,3945.0818932,N,10513.3009133,W,4,26,0.6,1759.624,M,-15.953,M,2.0,0000*45 10:19:18.100 01/21/00 256 0
0   50213.853  50208.095 10:19:17.400 01/21/00   0
21 $GPGGA,221937.00,3945.0819388,N,10513.3009531,W,4,23,0.7,1759.625,M,-15.953,M,3.0,0000*42 10:19:17.100 01/21/00 282 0
6         0.000        0.000 10:19:16.400 01/21/00          4           0           1   4          0
0   50213.287  50207.590 10:19:16.400 01/21/00   0
21 $GPGGA,221936.00,3945.0819169,N,10513.3009286,W,4,24,0.6,1759.625,M,-15.953,M,2.0,0000*42 10:19:16.100 01/21/00 244 0
0   50212.651  50206.845 10:19:15.400 01/21/00   0
21 $GPGGA,221935.00,3945.0819323,N,10513.3009592,W,4,24,0.7,1759.618,M,-15.953,M,3.0,0000*41 10:19:15.100 01/21/00 276 0
0   50211.875  50206.297 10:19:14.400 01/21/00   0
21 $GPGGA,221934.00,3945.0819392,N,10513.3009652,W,4,27,0.6,1759.598,M,-15.953,M,2.0,0000*4D 10:19:14.100 01/21/00 257 0
0   50211.787  50206.260 10:19:13.400 01/21/00   0
21 $GPGGA,221933.00,3945.0819194,N,10513.3009505,W,4,26,0.6,1759.604,M,-15.953,M,3.0,0000*49 10:19:13.100 01/21/00 254 0
6         0.000        0.000 10:19:12.200 01/21/00          0           0           0  36          0
