3         0.000        0.000 10:00:21.500 01/21/00         44           0          11   5
21 $GPGGA,220041.00,3945.0614239,N,10513.3039246,W,4,26,0.6,1762.408,M,-15.952,M,3.0,0000*47 10:00:21.100 01/21/00 340 0
0   49482.685  49444.296 10:00:20.700 01/21/00   0
21 $GPGGA,220040.00,3945.0614357,N,10513.3039131,W,4,25,0.7,1762.411,M,-15.952,M,2.0,0000*47 10:00:20.100 01/21/00  55 0
0   49481.455  49452.512 10:00:19.700 01/21/00   0
21 $GPGGA,220039.00,3945.0614587,N,10513.3039097,W,4,25,0.7,1762.407,M,-15.952,M,1.0,0000*4B 10:00:19.100 01/21/00   3 0
0   49469.042  49445.218 10:00:18.700 01/21/00   0
21 $GPGGA,220038.00,3945.0614524,N,10513.3039021,W,4,25,0.7,1762.413,M,-15.952,M,4.0,0000*4E 10:00:18.100 01/21/00  54 0
0   49441.940  49441.716 10:00:17.700 01/21/00   0
21 $GPGGA,220037.00,3945.0614431,N,10513.3039007,W,4,25,0.7,1762.406,M,-15.952,M,3.0,0000*43 10:00:17.100 01/21/00  19 0
0   49432.124  49437.614 10:00:16.700 01/21/00   0
21 $GPGGA,220036.00,3945.0614318,N,10513.3039015,W,4,26,0.6,1762.398,M,-15.952,M,2.0,0000*4E 10:00:16.100 01/21/00 360 0
0   49436.095  49436.383 10:00:15.700 01/21/00   0
21 $GPGGA,220035.00,3945.0614297,N,10513.3039051,W,4,25,0.7,1762.402,M,-15.952,M,1.0,0000*4E 10:00:15.100 01/21/00  32 0
0   49410.932  49474.597 10:00:14.700 01/21/00   0
21 $GPGGA,220034.00,3945.0614336,N,10513.3039074,W,4,25,0.7,1762.400,M,-15.952,M,2.0,0000*43 10:00:14.100 01/21/00  61 0
0   49384.295  49497.437 10:00:13.700 01/21/00   0
21 $GPGGA,220033.00,3945.0614221,N,10513.3039036,W,4,25,0.7,1762.400,M,-15.952,M,3.0,0000*44 10:00:13.100 01/21/00  34 0
0   49470.942  49477.253 10:00:12.700 01/21/00   0
21 $GPGGA,220032.00,3945.0614255,N,10513.3038987,W,4,25,0.7,1762.396,M,-15.952,M,2.0,0000*4D 10:00:12.100 01/21/00  52 0
0   49485.772  49292.201 10:00:11.700 01/21/00   0
21 $GPGGA,220031.00,3945.0614211,N,10513.3039148,W,4,26,0.6,1762.395,M,-15.952,M,5.0,0000*42 10:00:11.100 01/21/00 338 0
0   49457.385  49243.637 10:00:10.700 01/21/00   0
21 $GPGGA,220030.00,3945.0614188,N,10513.3039103,W,4,25,0.7,1762.395,M,-15.952,M,4.0,0000*4C 10:00:10.100 01/21/00  57 0
0   49451.576  49255.972 10:00:09.700 01/21/00   0
21 $GPGGA,220029.00,3945.0614155,N,10513.3039034,W,4,25,0.7,1762.390,M,-15.952,M,3.0,0000*43 10:00:09.100 01/21/00  12 0
0   49448.870  49294.424 10:00:08.700 01/21/00   0
21 $GPGGA,220028.00,3945.0614216,N,10513.3039106,W,4,25,0.7,1762.396,M,-15.952,M,2.0,0000*41 10:00:08.100 01/21/00  61 0
0   49429.618  49347.670 10:00:07.700 01/21/00   0
21 $GPGGA,220027.00,3945.0614212,N,10513.3039110,W,4,26,0.6,1762.395,M,-15.952,M,3.0,0000*4D 10:00:07.100 01/21/00 338 0
0   49425.334  49331.803 10:00:06.700 01/21/00   0
21 $GPGGA,220026.00,3945.0614245,N,10513.3039040,W,4,26,0.6,1762.395,M,-15.952,M,2.0,0000*4B 10:00:06.100 01/21/00 343 0
0   49411.280  49258.250 10:00:05.700 01/21/00   0
21 $GPGGA,220025.00,3945.0614221,N,10513.3039129,W,4,26,0.6,1762.396,M,-15.952,M,1.0,0000*44 10:00:05.100 01/21/00 339 0
0   49398.850  49245.533 10:00:04.700 01/21/00   0
21 $GPGGA,220024.00,3945.0614232,N,10513.3039189,W,4,26,0.6,1762.397,M,-15.952,M,2.0,0000*4F 10:00:04.100 01/21/00 383 0
0   49408.374  49348.538 10:00:03.700 01/21/00   0
21 $GPGGA,220023.00,3945.0614072,N,10513.3039261,W,4,26,0.7,1762.348,M,-15.952,M,3.0,0000*49 10:00:03.100 01/21/00 364 0
0   49414.450  49380.103 10:00:02.700 01/21/00   0
21 $GPGGA,220022.00,3945.0614075,N,10513.3039192,W,4,26,0.7,1762.386,M,-15.952,M,2.0,0000*43 10:00:02.100 01/21/00 364 0
0   49422.099  49460.233 10:00:01.700 01/21/00   0
21 $GPGGA,220021.00,3945.0614303,N,10513.3039354,W,4,26,0.6,1762.382,M,-15.952,M,3.0,0000*4E 10:00:01.100 01/21/00 359 0
0   49438.996  49466.024 10:00:00.700 01/21/00   0
21 $GPGGA,220020.00,3945.0614377,N,10513.3039475,W,4,26,0.6,1762.392,M,-15.952,M,2.0,0000*48 10:00:00.100 01/21/00 339 0
0   49429.322  49471.770 09:59:59.700 01/21/00   0
21 $GPGGA,220019.00,3945.0614240,N,10513.3039403,W,4,26,0.6,1762.405,M,-15.952,M,3.0,0000*4E 09:59:59.100 01/21/00 342 0
0   49415.934  49477.088 09:59:58.700 01/21/00   0
21 $GPGGA,220018.00,3945.0614135,N,10513.3039165,W,4,26,0.6,1762.399,M,-15.952,M,2.0,0000*48 09:59:58.100 01/21/00 363 0
0   49403.695  49479.717 09:59:57.700 01/21/00   0
21 $GPGGA,220017.00,3945.0614157,N,10513.3039065,W,4,26,0.6,1762.409,M,-15.952,M,3.0,0000*4D 09:59:57.100 01/21/00 344 0
0   49405.460  49478.501 09:59:56.700 01/21/00   0
21 $GPGGA,220016.00,3945.0614197,N,10513.3039171,W,4,26,0.6,1762.411,M,-15.952,M,2.0,0000*4C 09:59:56.100 01/21/00 342 0
0   49414.094  49475.575 09:59:55.700 01/21/00   0
21 $GPGGA,220015.00,3945.0614245,N,10513.3039298,W,4,26,0.6,1762.405,M,-15.952,M,3.0,0000*43 09:59:55.100 01/21/00 332 0
0   49422.437  49474.806 09:59:54.700 01/21/00   0
21 $GPGGA,220014.00,3945.0614200,N,10513.3039184,W,4,26,0.6,1762.409,M,-15.952,M,2.0,0000*40 09:59:54.100 01/21/00 341 0
0   49420.204  49476.953 09:59:53.700 01/21/00   0
21 $GPGGA,220013.00,3945.0614149,N,10513.3039126,W,4,26,0.6,1762.407,M,-15.952,M,1.0,0000*4C 09:59:53.100 01/21/00 343 0
0   49418.174  49478.155 09:59:52.700 01/21/00   0
21 $GPGGA,220012.00,3945.0614118,N,10513.3039084,W,4,26,0.6,1762.410,M,-15.952,M,2.0,0000*45 09:59:52.100 01/21/00 356 0
0   49422.524  49478.178 09:59:51.700 01/21/00   0
21 $GPGGA,220011.00,3945.0614114,N,10513.3039153,W,4,26,0.7,1762.407,M,-15.952,M,3.0,0000*47 09:59:51.100 01/21/00 342 0
0   49425.819  49478.786 09:59:50.700 01/21/00   0
21 $GPGGA,220010.00,3945.0614165,N,10513.3039264,W,4,26,0.7,1762.408,M,-15.952,M,2.0,0000*49 09:59:50.100 01/21/00 338 0
0   49433.171  49481.264 09:59:49.700 01/21/00   0
21 $GPGGA,220009.00,3945.0614194,N,10513.3039285,W,4,26,0.7,1762.420,M,-15.952,M,1.0,0000*49 09:59:49.100 01/21/00 339 0
0   49431.294  49487.210 09:59:48.700 01/21/00   0
21 $GPGGA,220008.00,3945.0614216,N,10513.3039237,W,4,26,0.7,1762.421,M,-15.952,M,2.0,0000*4A 09:59:48.100 01/21/00 342 0
0   49456.290  49493.767 09:59:47.700 01/21/00   0
21 $GPGGA,220007.00,3945.0614119,N,10513.3039272,W,4,26,0.7,1762.414,M,-15.952,M,1.0,0000*4D 09:59:47.100 01/21/00 341 0
0   49455.911  49493.691 09:59:46.700 01/21/00   0
21 $GPGGA,220006.00,3945.0614080,N,10513.3039195,W,4,26,0.7,1762.410,M,-15.952,M,2.0,0000*40 09:59:46.100 01/21/00 365 0
0   49458.444  49492.210 09:59:45.700 01/21/00   0
21 $GPGGA,220005.00,3945.0614017,N,10513.3039199,W,4,26,0.7,1762.407,M,-15.952,M,3.0,0000*46 09:59:45.100 01/21/00 365 0
0   49459.408  49491.734 09:59:44.700 01/21/00   0
21 $GPGGA,220004.00,3945.0614014,N,10513.3039166,W,4,26,0.7,1762.407,M,-15.952,M,2.0,0000*45 09:59:44.100 01/21/00 339 0
0   49459.254  49493.146 09:59:43.700 01/21/00   0
21 $GPGGA,220003.00,3945.0614086,N,10513.3039204,W,4,26,0.7,1762.415,M,-15.952,M,3.0,0000*4C 09:59:43.100 01/21/00 336 0
0   49438.009  49488.357 09:59:42.700 01/21/00   0
21 $GPGGA,220002.00,3945.0614105,N,10513.3039369,W,4,26,0.7,1762.421,M,-15.952,M,2.0,0000*4B 09:59:42.100 01/21/00 339 0
0   49424.103  49487.807 09:59:41.700 01/21/00   0
21 $GPGGA,220001.00,3945.0613948,N,10513.3039090,W,4,26,0.7,1762.410,M,-15.952,M,3.0,0000*48 09:59:41.100 01/21/00 340 0
0   49411.286  49465.558 09:59:40.700 01/21/00   0
21 $GPGGA,220000.00,3945.0614210,N,10513.3039069,W,4,26,0.7,1762.403,M,-15.952,M,2.0,0000*4D 09:59:40.100 01/21/00 364 0
0   49410.981  49469.849 09:59:39.700 01/21/00   0
21 $GPGGA,215959.00,3945.0614145,N,10513.3039850,W,4,26,0.7,1762.401,M,-15.952,M,3.0,0000*4C 09:59:39.100 01/21/00 340 0
0   49433.969  49440.647 09:59:38.700 01/21/00   0
21 $GPGGA,215958.00,3945.0614179,N,10513.3039850,W,4,26,0.7,1762.403,M,-15.952,M,2.0,0000*41 09:59:38.100 01/21/00 340 0
0   49475.815  49483.366 09:59:37.700 01/21/00   0
3         0.000        0.000 09:59:37.700 01/21/00         20           0          10   4
21 $GPGGA,215957.00,3945.0614054,N,10513.3040035,W,4,26,0.7,1762.412,M,-15.952,M,1.0,0000*46 09:59:37.100 01/21/00 340 0
0   49493.224  49523.677 09:59:36.700 01/21/00   0
21 $GPGGA,215956.00,3945.0614422,N,10513.3042595,W,4,26,0.7,1762.403,M,-15.952,M,2.0,0000*4C 09:59:36.100 01/21/00 344 0
0   49521.482  49555.725 09:59:35.700 01/21/00   0
21 $GPGGA,215955.00,3945.0614465,N,10513.3043611,W,4,27,0.7,1762.421,M,-15.952,M,3.0,0000*42 09:59:35.100 01/21/00 341 0
0   49530.693  49565.042 09:59:34.700 01/21/00   0
21 $GPGGA,215954.00,3945.0614446,N,10513.3043566,W,4,26,0.7,1762.424,M,-15.952,M,2.0,0000*44 09:59:34.100 01/21/00 361 0
0   49525.428  49558.676 09:59:33.700 01/21/00   0
21 $GPGGA,215953.00,3945.0614525,N,10513.3043508,W,4,26,0.7,1762.411,M,-15.952,M,3.0,0000*48 09:59:33.100 01/21/00 368 0
0   49521.973  49547.997 09:59:32.700 01/21/00   0
21 $GPGGA,215952.00,3945.0614880,N,10513.3044838,W,4,26,0.7,1762.399,M,-15.952,M,2.0,0000*44 09:59:32.100 01/21/00 342 0
0   49559.677  49581.424 09:59:31.700 01/21/00   0
21 $GPGGA,215951.00,3945.0614212,N,10513.3049132,W,4,26,0.7,1762.414,M,-15.952,M,1.0,0000*49 09:59:31.100 01/21/00 368 0
0   49634.175  49645.184 09:59:30.700 01/21/00   0
21 $GPGGA,215950.00,3945.0613741,N,10513.3055947,W,4,27,0.7,1762.429,M,-15.952,M,2.0,0000*47 09:59:30.100 01/21/00 367 0
0   49757.291  49776.921 09:59:29.700 01/21/00   0
21 $GPGGA,215949.00,3945.0613553,N,10513.3064749,W,4,27,0.7,1762.417,M,-15.952,M,1.0,0000*42 09:59:29.100 01/21/00 366 0
0   49844.016  49871.491 09:59:28.700 01/21/00   0
21 $GPGGA,215948.00,3945.0612863,N,10513.3073591,W,4,27,0.7,1762.407,M,-15.952,M,2.0,0000*4F 09:59:28.100 01/21/00 389 0
0   49850.230  49784.250 09:59:27.700 01/21/00   0
21 $GPGGA,215947.00,3945.0612840,N,10513.3081441,W,4,27,0.7,1762.409,M,-15.952,M,1.0,0000*4D 09:59:27.100 01/21/00 361 0
0   49865.533  49883.864 09:59:26.700 01/21/00   0
21 $GPGGA,215946.00,3945.0613001,N,10513.3089436,W,4,27,0.7,1762.406,M,-15.952,M,2.0,0000*44 09:59:26.100 01/21/00 339 0
0   49874.518  49905.180 09:59:25.700 01/21/00   0
21 $GPGGA,215945.00,3945.0612906,N,10513.3095962,W,4,26,0.7,1762.410,M,-15.952,M,3.0,0000*4E 09:59:25.100 01/21/00 339 0
0   49880.521  49899.702 09:59:24.700 01/21/00   0
21 $GPGGA,215944.00,3945.0612897,N,10513.3100990,W,4,28,0.7,1762.440,M,-15.952,M,2.0,0000*4C 09:59:24.100 01/21/00 343 0
0   49887.916  49895.298 09:59:23.700 01/21/00   0
21 $GPGGA,215943.00,3945.0612553,N,10513.3104181,W,4,27,0.7,1762.435,M,-15.952,M,3.0,0000*4E 09:59:23.100 01/21/00 368 0
0   49902.901  49914.378 09:59:22.700 01/21/00   0
21 $GPGGA,215942.00,3945.0612668,N,10513.3107239,W,4,27,0.7,1762.427,M,-15.952,M,2.0,0000*45 09:59:22.100 01/21/00 387 0
0   49919.994  49949.553 09:59:21.700 01/21/00   0
21 $GPGGA,215941.00,3945.0612331,N,10513.3110362,W,4,27,0.7,1762.429,M,-15.952,M,3.0,0000*49 09:59:21.100 01/21/00 344 0
0   49936.440  49972.114 09:59:20.700 01/21/00   0
21 $GPGGA,215940.00,3945.0612609,N,10513.3113142,W,4,27,0.7,1762.438,M,-15.952,M,2.0,0000*44 09:59:20.100 01/21/00 340 0
0   49947.647  49991.339 09:59:19.700 01/21/00   0
21 $GPGGA,215939.00,3945.0612652,N,10513.3115764,W,4,27,0.7,1762.442,M,-15.952,M,1.0,0000*4E 09:59:19.100 01/21/00 358 0
0   49953.538  50000.206 09:59:18.700 01/21/00   0
21 $GPGGA,215938.00,3945.0612950,N,10513.3117410,W,4,27,0.7,1762.456,M,-15.952,M,2.0,0000*46 09:59:18.100 01/21/00 344 0
0   49953.744  50003.398 09:59:17.700 01/21/00   0
3         0.000        0.000 09:59:17.400 01/21/00          6           0           9   4
21 $GPGGA,215937.00,3945.0612766,N,10513.3117814,W,4,27,0.7,1762.447,M,-15.952,M,3.0,0000*4B 09:59:17.100 01/21/00 341 0
0   49563.356  50004.000 09:59:16.700 01/21/00   0
21 $GPGGA,215936.00,3945.0612136,N,10513.3118488,W,4,27,0.7,1762.443,M,-15.952,M,2.0,0000*4A 09:59:16.100 01/21/00 360 0
0       0.000  49975.153 09:59:15.700 01/21/00   0
21 $GPGGA,215935.00,3945.0610611,N,10513.3119812,W,4,28,0.7,1762.454,M,-15.952,M,3.0,0000*4F 09:59:15.100 01/21/00 367 0
0       0.000  49960.855 09:59:14.700 01/21/00   0
21 $GPGGA,215934.00,3945.0608105,N,10513.3119924,W,4,28,0.7,1762.470,M,-15.952,M,2.0,0000*46 09:59:14.100 01/21/00 365 0
0   49950.218  49954.210 09:59:13.700 01/21/00   0
21 $GPGGA,215933.00,3945.0605750,N,10513.3118635,W,4,28,0.7,1762.465,M,-15.952,M,3.0,0000*41 09:59:13.100 01/21/00 365 0
0   49972.691  49979.601 09:59:12.700 01/21/00   0
21 $GPGGA,215932.00,3945.0604292,N,10513.3116895,W,4,28,0.7,1762.474,M,-15.952,M,2.0,0000*41 09:59:12.100 01/21/00 344 0
0   49977.424  49999.939 09:59:11.700 01/21/00   0
21 $GPGGA,215931.00,3945.0603668,N,10513.3115923,W,4,28,0.7,1762.488,M,-15.952,M,3.0,0000*49 09:59:11.100 01/21/00 369 0
3         0.000        0.000 09:59:11.00 01/21/00         22           0           8   4
0   49983.919  50030.329 09:59:10.700 01/21/00   0
21 $GPGGA,215930.00,3945.0602473,N,10513.3113832,W,4,27,0.7,1762.491,M,-15.952,M,2.0,0000*40 09:59:10.100 01/21/00 365 0
0   49989.950  50094.930 09:59:09.700 01/21/00   0
21 $GPGGA,215929.00,3945.0601466,N,10513.3110431,W,4,26,0.6,1762.471,M,-15.952,M,3.0,0000*4C 09:59:09.100 01/21/00 347 0
0   49982.040  50119.326 09:59:08.700 01/21/00   0
21 $GPGGA,215928.00,3945.0600304,N,10513.3106842,W,4,28,0.6,1762.479,M,-15.952,M,2.0,0000*47 09:59:08.100 01/21/00 342 0
0   49956.581  50043.935 09:59:07.700 01/21/00   0
21 $GPGGA,215927.00,3945.0599332,N,10513.3103569,W,4,27,0.7,1762.479,M,-15.952,M,3.0,0000*40 09:59:07.100 01/21/00 343 0
0   49919.322  49976.496 09:59:06.700 01/21/00   0
21 $GPGGA,215926.00,3945.0598450,N,10513.3099869,W,4,27,0.7,1762.477,M,-15.952,M,2.0,0000*43 09:59:06.100 01/21/00 347 0
0   49884.366  49917.353 09:59:05.700 01/21/00   0
21 $GPGGA,215925.00,3945.0597517,N,10513.3096509,W,4,26,0.7,1762.517,M,-15.952,M,3.0,0000*4E 09:59:05.100 01/21/00 346 0
0   49849.985  49859.649 09:59:04.700 01/21/00   0
21 $GPGGA,215924.00,3945.0596591,N,10513.3092745,W,4,28,0.6,1762.511,M,-15.952,M,2.0,0000*46 09:59:04.100 01/21/00 388 0
0   49819.610  49819.104 09:59:03.700 01/21/00   0
21 $GPGGA,215923.00,3945.0595532,N,10513.3088877,W,4,27,0.7,1762.522,M,-15.952,M,3.0,0000*41 09:59:03.100 01/21/00 359 0
0   49799.364  49801.143 09:59:02.700 01/21/00   0
21 $GPGGA,215922.00,3945.0595489,N,10513.3085160,W,4,27,0.6,1762.502,M,-15.952,M,2.0,0000*41 09:59:02.100 01/21/00 342 0
0   49786.425  49790.944 09:59:01.700 01/21/00   0
21 $GPGGA,215921.00,3945.0594571,N,10513.3081475,W,4,27,0.6,1762.525,M,-15.952,M,3.0,0000*44 09:59:01.100 01/21/00 356 0
0   49721.126  49785.921 09:59:00.700 01/21/00   0
21 $GPGGA,215920.00,3945.0593759,N,10513.3077577,W,4,27,0.6,1762.509,M,-15.952,M,2.0,0000*4F 09:59:00.100 01/21/00 369 0
0   49763.181  49765.467 09:58:59.700 01/21/00   0
21 $GPGGA,215919.00,3945.0592582,N,10513.3073707,W,4,27,0.6,1762.518,M,-15.952,M,3.0,0000*40 09:58:59.100 01/21/00 367 0
0   49748.474  49745.653 09:58:58.700 01/21/00   0
21 $GPGGA,215918.00,3945.0591443,N,10513.3070527,W,4,26,0.7,1762.515,M,-15.952,M,2.0,0000*41 09:58:58.100 01/21/00 360 0
0   49729.996  49714.323 09:58:57.700 01/21/00   0
21 $GPGGA,215917.00,3945.0590300,N,10513.3067220,W,4,27,0.6,1762.527,M,-15.952,M,3.0,0000*49 09:58:57.100 01/21/00 345 0
0   49719.160  49700.110 09:58:56.700 01/21/00   0
21 $GPGGA,215916.00,3945.0589075,N,10513.3063952,W,4,27,0.6,1762.527,M,-15.952,M,2.0,0000*4A 09:58:56.100 01/21/00 348 0
0   49702.537  49696.012 09:58:55.700 01/21/00   0
21 $GPGGA,215915.00,3945.0588323,N,10513.3060582,W,4,27,0.6,1762.520,M,-15.952,M,1.0,0000*4E 09:58:55.100 01/21/00 344 0
0   49679.680  49686.665 09:58:54.700 01/21/00   0
21 $GPGGA,215914.00,3945.0587584,N,10513.3056928,W,4,27,0.6,1762.519,M,-15.952,M,2.0,0000*4B 09:58:54.100 01/21/00 341 0
0   49657.494  49691.225 09:58:53.700 01/21/00   0
21 $GPGGA,215913.00,3945.0587110,N,10513.3053401,W,4,25,0.7,1762.517,M,-15.952,M,1.0,0000*48 09:58:53.100 01/21/00  77 0
0   49631.315  49672.123 09:58:52.700 01/21/00   0
21 $GPGGA,215912.00,3945.0586139,N,10513.3050524,W,4,25,0.7,1762.511,M,-15.952,M,2.0,0000*43 09:58:52.100 01/21/00  74 0
0   49499.941  49644.262 09:58:51.700 01/21/00   0
21 $GPGGA,215911.00,3945.0585065,N,10513.3047907,W,4,25,0.7,1762.519,M,-15.952,M,1.0,0000*4B 09:58:51.100 01/21/00  78 0
0   49560.504  49600.452 09:58:50.700 01/21/00   0
21 $GPGGA,215910.00,3945.0584438,N,10513.3046180,W,4,25,0.7,1762.510,M,-15.952,M,2.0,0000*4B 09:58:50.100 01/21/00  75 0
0   49542.438  49580.692 09:58:49.700 01/21/00   0
3         0.000        0.000 09:58:49.200 01/21/00          9           0           7   4
21 $GPGGA,215909.00,3945.0584198,N,10513.3045982,W,4,25,0.7,1762.524,M,-15.952,M,3.0,0000*43 09:58:49.100 01/21/00  29 0
0   49545.720  49587.250 09:58:48.700 01/21/00   0
21 $GPGGA,215908.00,3945.0584075,N,10513.3045831,W,4,25,0.7,1762.531,M,-15.952,M,2.0,0000*4C 09:58:48.100 01/21/00  71 0
0   47982.650  49589.177 09:58:47.700 01/21/00   0
21 $GPGGA,215907.00,3945.0582054,N,10513.3046027,W,4,25,0.7,1762.545,M,-15.952,M,1.0,0000*4A 09:58:47.100 01/21/00  38 0
0       0.000  49558.802 09:58:46.700 01/21/00   0
21 $GPGGA,215906.00,3945.0579866,N,10513.3045889,W,4,25,0.7,1762.543,M,-15.952,M,2.0,0000*4C 09:58:46.100 01/21/00  72 0
0       0.000  49508.521 09:58:45.700 01/21/00   0
21 $GPGGA,215905.00,3945.0577304,N,10513.3047582,W,4,25,0.7,1762.541,M,-15.952,M,1.0,0000*4B 09:58:45.100 01/21/00  78 0
0   49399.909  49460.879 09:58:44.700 01/21/00   0
21 $GPGGA,215904.00,3945.0575558,N,10513.3050129,W,4,26,0.7,1762.574,M,-15.952,M,2.0,0000*42 09:58:44.100 01/21/00  80 0
0   49397.210  49447.054 09:58:43.700 01/21/00   0
21 $GPGGA,215903.00,3945.0574552,N,10513.3052741,W,4,25,0.7,1762.570,M,-15.952,M,1.0,0000*40 09:58:43.100 01/21/00  74 0
0   49407.225  49472.785 09:58:42.700 01/21/00   0
21 $GPGGA,215902.00,3945.0574376,N,10513.3055588,W,4,26,0.7,1762.540,M,-15.952,M,2.0,0000*42 09:58:42.100 01/21/00  80 0
0   49416.022  49462.049 09:58:41.700 01/21/00   0
21 $GPGGA,215901.00,3945.0574475,N,10513.3056878,W,4,26,0.7,1762.559,M,-15.952,M,3.0,0000*4D 09:58:41.100 01/21/00  48 0
0   49418.717  49463.423 09:58:40.700 01/21/00   0
3         0.000        0.000 09:58:40.400 01/21/00         18           0           6   4
21 $GPGGA,215900.00,3945.0574738,N,10513.3057205,W,4,27,0.6,1762.555,M,-15.952,M,2.0,0000*4A 09:58:40.100 01/21/00 372 0
0   49427.082  49467.767 09:58:39.700 01/21/00   0
21 $GPGGA,215859.00,3945.0574916,N,10513.3058966,W,4,26,0.7,1762.547,M,-15.952,M,1.0,0000*44 09:58:39.100 01/21/00  23 0
0   49444.663  49479.275 09:58:38.700 01/21/00   0
21 $GPGGA,215858.00,3945.0575804,N,10513.3060753,W,4,25,0.7,1762.548,M,-15.952,M,2.0,0000*4A 09:58:38.100 01/21/00  81 0
0   49468.401  49496.512 09:58:37.700 01/21/00   0
21 $GPGGA,215857.00,3945.0577029,N,10513.3064105,W,4,26,0.7,1762.557,M,-15.952,M,3.0,0000*4D 09:58:37.100 01/21/00  66 0
0   49494.229  49509.538 09:58:36.700 01/21/00   0
21 $GPGGA,215856.00,3945.0577856,N,10513.3067860,W,4,26,0.7,1762.542,M,-15.952,M,2.0,0000*40 09:58:36.100 01/21/00  80 0
0   49521.890  49515.036 09:58:35.700 01/21/00   0
21 $GPGGA,215855.00,3945.0579086,N,10513.3072444,W,4,27,0.6,1762.532,M,-15.952,M,1.0,0000*42 09:58:35.100 01/21/00 346 0
0   49548.142  49507.722 09:58:34.700 01/21/00   0
21 $GPGGA,215854.00,3945.0580286,N,10513.3076995,W,4,27,0.6,1762.544,M,-15.952,M,2.0,0000*40 09:58:34.100 01/21/00 370 0
0   49580.410  49503.675 09:58:33.700 01/21/00   0
21 $GPGGA,215853.00,3945.0581108,N,10513.3082361,W,4,26,0.6,1762.566,M,-15.952,M,3.0,0000*49 09:58:33.100 01/21/00 348 0
0   49627.590  49549.114 09:58:32.700 01/21/00   0
21 $GPGGA,215852.00,3945.0581696,N,10513.3087505,W,4,25,0.7,1762.589,M,-15.952,M,2.0,0000*4B 09:58:32.100 01/21/00  61 0
0   49659.856  49579.160 09:58:31.700 01/21/00   0
21 $GPGGA,215851.00,3945.0582941,N,10513.3092024,W,4,26,0.7,1762.564,M,-15.952,M,3.0,0000*4D 09:58:31.100 01/21/00  35 0
0   49686.227  49623.381 09:58:30.700 01/21/00   0
21 $GPGGA,215850.00,3945.0584702,N,10513.3096592,W,4,26,0.6,1762.565,M,-15.952,M,2.0,0000*4E 09:58:30.100 01/21/00 347 0
0   49713.646  49676.962 09:58:29.700 01/21/00   0
21 $GPGGA,215849.00,3945.0586009,N,10513.3101291,W,4,26,0.7,1762.587,M,-15.952,M,3.0,0000*4F 09:58:29.100 01/21/00 347 0
0   49741.509  49723.767 09:58:28.700 01/21/00   0
21 $GPGGA,215848.00,3945.0587114,N,10513.3106068,W,4,27,0.7,1762.549,M,-15.952,M,2.0,0000*43 09:58:28.100 01/21/00 372 0
0   49768.702  49761.621 09:58:27.700 01/21/00   0
21 $GPGGA,215847.00,3945.0588142,N,10513.3110670,W,4,27,0.7,1762.568,M,-15.952,M,1.0,0000*48 09:58:27.100 01/21/00 343 0
0   49792.770  49793.209 09:58:26.700 01/21/00   0
21 $GPGGA,215846.00,3945.0588833,N,10513.3114863,W,4,26,0.8,1762.553,M,-15.952,M,2.0,0000*4B 09:58:26.100 01/21/00 348 0
0   49814.479  49819.939 09:58:25.700 01/21/00   0
21 $GPGGA,215845.00,3945.0589434,N,10513.3119487,W,4,26,0.8,1762.545,M,-15.952,M,1.0,0000*4D 09:58:25.100 01/21/00 348 0
0   49835.081  49841.990 09:58:24.700 01/21/00   0
21 $GPGGA,215844.00,3945.0590177,N,10513.3123384,W,4,28,0.7,1762.549,M,-15.952,M,2.0,0000*45 09:58:24.100 01/21/00 348 0
0   49853.906  49863.836 09:58:23.700 01/21/00   0
21 $GPGGA,215843.00,3945.0590507,N,10513.3126193,W,4,27,0.8,1762.524,M,-15.952,M,3.0,0000*4A 09:58:23.100 01/21/00 343 0
0   49861.673  49873.139 09:58:22.700 01/21/00   0
21 $GPGGA,215842.00,3945.0590657,N,10513.3127012,W,4,27,0.8,1762.533,M,-15.952,M,2.0,0000*43 09:58:22.100 01/21/00 368 0
3         0.000        0.000 09:58:22.00 01/21/00          8           0           5   4
0   49854.256  49867.444 09:58:21.700 01/21/00   0
21 $GPGGA,215841.00,3945.0590567,N,10513.3126898,W,4,27,0.8,1762.538,M,-15.952,M,3.0,0000*41 09:58:21.100 01/21/00 347 0
0   49695.955  49875.372 09:58:20.700 01/21/00   0
21 $GPGGA,215840.00,3945.0590195,N,10513.3126751,W,4,26,0.8,1762.528,M,-15.952,M,2.0,0000*42 09:58:20.100 01/21/00 343 0
0       0.000  49902.908 09:58:19.700 01/21/00   0
21 $GPGGA,215839.00,3945.0587495,N,10513.3125800,W,4,27,0.7,1762.526,M,-15.952,M,1.0,0000*44 09:58:19.100 01/21/00 378 0
0   49442.918  49884.532 09:58:18.700 01/21/00   0
21 $GPGGA,215838.00,3945.0583994,N,10513.3123112,W,4,26,0.8,1762.533,M,-15.952,M,2.0,0000*48 09:58:18.100 01/21/00 371 0
0       0.000  49783.041 09:58:17.700 01/21/00   0
21 $GPGGA,215837.00,3945.0581224,N,10513.3121485,W,4,25,1.0,1762.578,M,-15.952,M,1.0,0000*4A 09:58:17.100 01/21/00 356 0
0       0.000  49415.013 09:58:16.700 01/21/00   0
21 $GPGGA,215836.00,3945.0579322,N,10513.3120725,W,4,27,0.8,1762.602,M,-15.952,M,2.0,0000*45 09:58:16.100 01/21/00 394 0
0   49825.592  49567.536 09:58:15.700 01/21/00   0
21 $GPGGA,215835.00,3945.0579101,N,10513.3120194,W,4,27,0.8,1762.610,M,-15.952,M,1.0,0000*49 09:58:15.100 01/21/00 349 0
0   49833.051  49654.613 09:58:14.700 01/21/00   0
3         0.000        0.000 09:58:14.700 01/21/00         25           0           4   4
21 $GPGGA,215834.00,3945.0578943,N,10513.3119563,W,4,27,0.8,1762.595,M,-15.952,M,2.0,0000*4C 09:58:14.100 01/21/00 370 0
0   49807.898  49623.811 09:58:13.700 01/21/00   0
21 $GPGGA,215833.00,3945.0578611,N,10513.3116668,W,4,27,0.8,1762.592,M,-15.952,M,3.0,0000*42 09:58:13.100 01/21/00 345 0
0   49801.930  49726.227 09:58:12.700 01/21/00   0
21 $GPGGA,215832.00,3945.0578308,N,10513.3112910,W,4,27,0.8,1762.615,M,-15.952,M,2.0,0000*47 09:58:12.100 01/21/00 374 0
0   49797.610  49781.199 09:58:11.700 01/21/00   0
21 $GPGGA,215831.00,3945.0577702,N,10513.3109623,W,4,28,0.7,1762.621,M,-15.952,M,1.0,0000*44 09:58:11.100 01/21/00 363 0
0   49797.785  49798.764 09:58:10.700 01/21/00   0
21 $GPGGA,215830.00,3945.0577130,N,10513.3107573,W,4,27,0.8,1762.623,M,-15.952,M,2.0,0000*4B 09:58:10.100 01/21/00 398 0
0   49798.465  49801.878 09:58:09.700 01/21/00   0
21 $GPGGA,215829.00,3945.0577098,N,10513.3107102,W,4,27,0.8,1762.636,M,-15.952,M,1.0,0000*45 09:58:09.100 01/21/00 367 0
0   49802.274  49804.702 09:58:08.700 01/21/00   0
21 $GPGGA,215828.00,3945.0577202,N,10513.3107181,W,4,27,0.8,1762.640,M,-15.952,M,2.0,0000*4C 09:58:08.100 01/21/00 348 0
0   49801.449  49804.734 09:58:07.700 01/21/00   0
21 $GPGGA,215827.00,3945.0577043,N,10513.3106977,W,4,27,0.8,1762.632,M,-15.952,M,3.0,0000*40 09:58:07.100 01/21/00 355 0
0   49731.269  49804.083 09:58:06.700 01/21/00   0
21 $GPGGA,215826.00,3945.0577112,N,10513.3106987,W,4,27,0.8,1762.641,M,-15.952,M,2.0,0000*4E 09:58:06.100 01/21/00 353 0
0       0.000  49803.774 09:58:05.700 01/21/00   0
21 $GPGGA,215825.00,3945.0577324,N,10513.3106867,W,4,27,0.8,1762.631,M,-15.952,M,3.0,0000*43 09:58:05.100 01/21/00 373 0
0   49799.968  49802.140 09:58:04.700 01/21/00   0
21 $GPGGA,215824.00,3945.0577154,N,10513.3104831,W,4,29,0.7,1762.622,M,-15.952,M,2.0,0000*44 09:58:04.100 01/21/00   3 0
0   49648.786  49800.546 09:58:03.700 01/21/00   0
21 $GPGGA,215823.00,3945.0577345,N,10513.3101411,W,4,28,0.7,1762.638,M,-15.952,M,3.0,0000*41 09:58:03.100 01/21/00 372 0
0   49797.839  49796.234 09:58:02.700 01/21/00   0
21 $GPGGA,215822.00,3945.0576470,N,10513.3097799,W,4,27,0.7,1762.617,M,-15.952,M,2.0,0000*4E 09:58:02.100 01/21/00 349 0
0   49806.226  49796.411 09:58:01.700 01/21/00   0
21 $GPGGA,215821.00,3945.0575580,N,10513.3093906,W,4,28,0.7,1762.588,M,-15.952,M,3.0,0000*47 09:58:01.100 01/21/00 352 0
0   49825.613  49804.864 09:58:00.700 01/21/00   0
21 $GPGGA,215820.00,3945.0574694,N,10513.3090206,W,4,26,0.8,1762.615,M,-15.952,M,2.0,0000*4E 09:58:00.100 01/21/00 372 0
0   49849.292  49819.320 09:57:59.700 01/21/00   0
21 $GPGGA,215819.00,3945.0573730,N,10513.3087466,W,4,27,0.8,1762.625,M,-15.952,M,3.0,0000*49 09:57:59.100 01/21/00 353 0
0   49892.655  49867.406 09:57:58.700 01/21/00   0
21 $GPGGA,215818.00,3945.0573581,N,10513.3084870,W,4,28,0.7,1762.626,M,-15.952,M,2.0,0000*4A 09:57:58.100 01/21/00 396 0
0   49959.767  49970.244 09:57:57.700 01/21/00   0
21 $GPGGA,215817.00,3945.0572918,N,10513.3082312,W,4,28,0.7,1762.614,M,-15.952,M,3.0,0000*41 09:57:57.100 01/21/00 355 0
0   50046.669  50136.379 09:57:56.700 01/21/00   0
21 $GPGGA,215816.00,3945.0572357,N,10513.3078853,W,4,27,0.7,1762.603,M,-15.952,M,2.0,0000*42 09:57:56.100 01/21/00 350 0
0   50106.678  50350.237 09:57:55.700 01/21/00   0
21 $GPGGA,215815.00,3945.0571766,N,10513.3075037,W,4,27,0.7,1762.592,M,-15.952,M,3.0,0000*49 09:57:55.100 01/21/00 348 0
0   50088.327  50431.799 09:57:54.700 01/21/00   0
21 $GPGGA,215814.00,3945.0570734,N,10513.3071101,W,4,27,0.7,1762.572,M,-15.952,M,2.0,0000*41 09:57:54.100 01/21/00 351 0
0   49961.984  50159.850 09:57:53.700 01/21/00   0
21 $GPGGA,215813.00,3945.0569768,N,10513.3067261,W,4,27,0.7,1762.580,M,-15.952,M,3.0,0000*49 09:57:53.100 01/21/00 347 0
0   49784.459  49815.333 09:57:52.700 01/21/00   0
21 $GPGGA,215812.00,3945.0569233,N,10513.3063753,W,4,27,0.7,1762.568,M,-15.952,M,2.0,0000*44 09:57:52.100 01/21/00 397 0
0   49482.698  49651.289 09:57:51.700 01/21/00   0
21 $GPGGA,215811.00,3945.0568418,N,10513.3060666,W,4,27,0.7,1762.580,M,-15.952,M,3.0,0000*4A 09:57:51.100 01/21/00 351 0
0   49590.104  49612.492 09:57:50.700 01/21/00   0
21 $GPGGA,215810.00,3945.0567222,N,10513.3058800,W,4,27,0.7,1762.598,M,-15.952,M,2.0,0000*46 09:57:50.100 01/21/00 351 0
0   49568.804  49609.354 09:57:49.700 01/21/00   0
3         0.000        0.000 09:57:49.100 01/21/00          9           0           3   4
21 $GPGGA,215809.00,3945.0567255,N,10513.3058011,W,4,26,0.7,1762.593,M,-15.952,M,1.0,0000*4F 09:57:49.100 01/21/00  60 0
0   49430.103  49578.551 09:57:48.700 01/21/00   0
21 $GPGGA,215808.00,3945.0566362,N,10513.3057522,W,4,27,0.6,1762.601,M,-15.952,M,2.0,0000*4B 09:57:48.100 01/21/00 352 0
0   39399.044  49546.629 09:57:47.700 01/21/00   0
21 $GPGGA,215807.00,3945.0563817,N,10513.3057352,W,4,27,0.6,1762.600,M,-15.952,M,3.0,0000*49 09:57:47.100 01/21/00 352 0
0       0.000  49497.608 09:57:46.700 01/21/00   0
21 $GPGGA,215806.00,3945.0561016,N,10513.3057409,W,4,26,0.7,1762.625,M,-15.952,M,2.0,0000*4C 09:57:46.100 01/21/00  69 0
0       0.000  49450.927 09:57:45.700 01/21/00   0
21 $GPGGA,215805.00,3945.0558614,N,10513.3058096,W,4,25,0.7,1762.641,M,-15.952,M,3.0,0000*4C 09:57:45.100 01/21/00  38 0
0   48850.908  49431.374 09:57:44.700 01/21/00   0
21 $GPGGA,215804.00,3945.0557398,N,10513.3060512,W,4,27,0.6,1762.645,M,-15.952,M,2.0,0000*47 09:57:44.100 01/21/00 372 0
0   49402.096  49447.452 09:57:43.700 01/21/00   0
21 $GPGGA,215803.00,3945.0556205,N,10513.3062109,W,4,26,0.7,1762.663,M,-15.952,M,1.0,0000*4F 09:57:43.100 01/21/00  68 0
0   49411.808  49448.694 09:57:42.700 01/21/00   0
21 $GPGGA,215802.00,3945.0555955,N,10513.3064603,W,4,26,0.7,1762.669,M,-15.952,M,2.0,0000*41 09:57:42.100 01/21/00  76 0
0   49409.680  49442.286 09:57:41.700 01/21/00   0
21 $GPGGA,215801.00,3945.0556109,N,10513.3066603,W,4,26,0.6,1762.658,M,-15.952,M,3.0,0000*40 09:57:41.100 01/21/00 348 0
0   49429.976  49459.462 09:57:40.700 01/21/00   0
3         0.000        0.000 09:57:40.200 01/21/00         28           0           2   4
21 $GPGGA,215800.00,3945.0556135,N,10513.3068093,W,4,27,0.6,1762.672,M,-15.952,M,2.0,0000*47 09:57:40.100 01/21/00   1 0
0   49442.955  49471.587 09:57:39.700 01/21/00   0
21 $GPGGA,215759.00,3945.0556043,N,10513.3069493,W,4,25,0.6,1762.673,M,-15.952,M,3.0,0000*43 09:57:39.100 01/21/00 382 0
0   49475.784  49504.366 09:57:38.700 01/21/00   0
21 $GPGGA,215758.00,3945.0556587,N,10513.3072193,W,4,26,0.6,1762.656,M,-15.952,M,2.0,0000*45 09:57:38.100 01/21/00 363 0
0   49517.777  49542.679 09:57:37.700 01/21/00   0
21 $GPGGA,215757.00,3945.0557186,N,10513.3074615,W,4,28,0.6,1762.654,M,-15.952,M,3.0,0000*4C 09:57:37.100 01/21/00 362 0
0   49578.020  49599.881 09:57:36.700 01/21/00   0
21 $GPGGA,215756.00,3945.0557779,N,10513.3077386,W,4,27,0.6,1762.648,M,-15.952,M,2.0,0000*44 09:57:36.100 01/21/00 354 0
0   49659.993  49685.954 09:57:35.700 01/21/00   0
21 $GPGGA,215755.00,3945.0558940,N,10513.3080606,W,4,28,0.6,1762.662,M,-15.952,M,3.0,0000*4F 09:57:35.100 01/21/00 355 0
0   49774.208  49814.200 09:57:34.700 01/21/00   0
21 $GPGGA,215754.00,3945.0559322,N,10513.3084055,W,4,27,0.7,1762.644,M,-15.952,M,2.0,0000*4E 09:57:34.100 01/21/00  14 0
0   49936.211  50041.407 09:57:33.700 01/21/00   0
21 $GPGGA,215753.00,3945.0560424,N,10513.3087936,W,4,28,0.6,1762.625,M,-15.952,M,3.0,0000*45 09:57:33.100 01/21/00 380 0
0   50088.540  50326.836 09:57:32.700 01/21/00   0
21 $GPGGA,215752.00,3945.0560978,N,10513.3091023,W,4,27,0.6,1762.641,M,-15.952,M,2.0,0000*46 09:57:32.100 01/21/00 356 0
0   50152.712  50483.716 09:57:31.700 01/21/00   0
21 $GPGGA,215751.00,3945.0561630,N,10513.3094170,W,4,26,0.7,1762.638,M,-15.952,M,3.0,0000*4A 09:57:31.100 01/21/00 379 0
0   50092.516  50337.683 09:57:30.700 01/21/00   0
21 $GPGGA,215750.00,3945.0562640,N,10513.3096184,W,4,27,0.7,1762.649,M,-15.952,M,2.0,0000*40 09:57:30.100 01/21/00 359 0
0   50071.622  50331.319 09:57:29.700 01/21/00   0
21 $GPGGA,215749.00,3945.0563484,N,10513.3098724,W,4,26,0.7,1762.650,M,-15.952,M,3.0,0000*49 09:57:29.100 01/21/00 356 0
0   50080.591  50337.278 09:57:28.700 01/21/00   0
21 $GPGGA,215748.00,3945.0564119,N,10513.3102223,W,4,25,0.7,1762.650,M,-15.952,M,2.0,0000*4C 09:57:28.100 01/21/00 372 0
0   49995.390  50174.257 09:57:27.700 01/21/00   0
21 $GPGGA,215747.00,3945.0564364,N,10513.3105451,W,4,26,0.7,1762.652,M,-15.952,M,3.0,0000*4F 09:57:27.100 01/21/00 357 0
0   49927.375  50022.313 09:57:26.700 01/21/00   0
21 $GPGGA,215746.00,3945.0565180,N,10513.3108231,W,4,27,0.6,1762.650,M,-15.952,M,2.0,0000*49 09:57:26.100 01/21/00 360 0
0   49872.926  49928.025 09:57:25.700 01/21/00   0
21 $GPGGA,215745.00,3945.0565222,N,10513.3110986,W,4,25,0.7,1762.655,M,-15.952,M,3.0,0000*48 09:57:25.100 01/21/00  65 0
0   49834.344  49858.364 09:57:24.700 01/21/00   0
21 $GPGGA,215744.00,3945.0565805,N,10513.3114310,W,4,24,0.7,1762.624,M,-15.952,M,2.0,0000*41 09:57:24.100 01/21/00  77 0
0   49810.201  49824.405 09:57:23.700 01/21/00   0
21 $GPGGA,215743.00,3945.0566509,N,10513.3117307,W,4,24,0.7,1762.607,M,-15.952,M,1.0,0000*43 09:57:23.100 01/21/00  42 0
0   49802.904  49813.741 09:57:22.700 01/21/00   0
21 $GPGGA,215742.00,3945.0567319,N,10513.3120259,W,4,24,0.7,1762.619,M,-15.952,M,2.0,0000*46 09:57:22.100 01/21/00  93 0
0   49805.033  49816.589 09:57:21.700 01/21/00   0
21 $GPGGA,215741.00,3945.0568115,N,10513.3123874,W,4,25,0.7,1762.614,M,-15.952,M,3.0,0000*4F 09:57:21.100 01/21/00  52 0
0   49813.271  49829.930 09:57:20.700 01/21/00   0
21 $GPGGA,215740.00,3945.0568832,N,10513.3126808,W,4,25,0.7,1762.604,M,-15.952,M,2.0,0000*4C 09:57:20.100 01/21/00  79 0
0   49825.930  49839.712 09:57:19.700 01/21/00   0
21 $GPGGA,215739.00,3945.0569633,N,10513.3129554,W,4,25,0.6,1762.606,M,-15.952,M,3.0,0000*45 09:57:19.100 01/21/00 378 0
0   49842.188  49853.501 09:57:18.700 01/21/00   0
21 $GPGGA,215738.00,3945.0569663,N,10513.3132120,W,4,24,0.7,1762.586,M,-15.952,M,2.0,0000*46 09:57:18.100 01/21/00 378 0
0   49868.884  49880.834 09:57:17.700 01/21/00   0
21 $GPGGA,215737.00,3945.0568079,N,10513.3133585,W,4,25,0.8,1762.590,M,-15.952,M,3.0,0000*47 09:57:17.100 01/21/00 355 0
0   49920.270  49987.196 09:57:16.700 01/21/00   0
21 $GPGGA,215736.00,3945.0565922,N,10513.3133782,W,4,26,0.8,1762.612,M,-15.952,M,2.0,0000*42 09:57:16.100 01/21/00 387 0
0   48627.121  49991.823 09:57:15.700 01/21/00   0
21 $GPGGA,215735.00,3945.0563591,N,10513.3133269,W,4,24,1.0,1762.638,M,-15.952,M,3.0,0000*41 09:57:15.100 01/21/00 360 0
0       0.000  49925.889 09:57:14.700 01/21/00   0
21 $GPGGA,215734.00,3945.0561983,N,10513.3131996,W,4,24,0.8,1762.646,M,-15.952,M,2.0,0000*45 09:57:14.100 01/21/00  85 0
0   49877.547  49890.756 09:57:13.700 01/21/00   0
21 $GPGGA,215733.00,3945.0561270,N,10513.3130943,W,4,25,0.7,1762.665,M,-15.952,M,3.0,0000*42 09:57:13.100 01/21/00 383 0
0   49871.885  49882.619 09:57:12.700 01/21/00   0
6         0.000        0.000 09:57:12.500 01/21/00         25           0           1   4          0
21 $GPGGA,215732.00,3945.0561074,N,10513.3131121,W,4,24,0.7,1762.657,M,-15.952,M,2.0,0000*49 09:57:12.100 01/21/00 359 0
0   49542.661  49873.320 09:57:11.700 01/21/00   0
21 $GPGGA,215731.00,3945.0561155,N,10513.3129095,W,4,23,0.8,1762.648,M,-15.952,M,3.0,0000*48 09:57:11.100 01/21/00 355 0
0   49843.088  49849.544 09:57:10.700 01/21/00   0
21 $GPGGA,215730.00,3945.0560102,N,10513.3126036,W,4,25,0.8,1762.609,M,-15.952,M,2.0,0000*4E 09:57:10.100 01/21/00 374 0
0   49820.347  49824.463 09:57:09.700 01/21/00   0
21 $GPGGA,215729.00,3945.0559421,N,10513.3122795,W,4,25,0.7,1762.665,M,-15.952,M,3.0,0000*46 09:57:09.100 01/21/00 356 0
0   49798.982  49802.573 09:57:08.700 01/21/00   0
21 $GPGGA,215728.00,3945.0559101,N,10513.3119146,W,4,27,0.7,1762.664,M,-15.952,M,2.0,0000*42 09:57:08.100 01/21/00 356 0
0   49778.923  49781.953 09:57:07.700 01/21/00   0
21 $GPGGA,215727.00,3945.0558470,N,10513.3115671,W,4,25,0.7,1762.672,M,-15.952,M,3.0,0000*44 09:57:07.100 01/21/00 352 0
0   49765.392  49768.331 09:57:06.700 01/21/00   0
21 $GPGGA,215726.00,3945.0557274,N,10513.3112155,W,4,25,0.7,1762.675,M,-15.952,M,2.0,0000*48 09:57:06.100 01/21/00 356 0
0   49759.067  49768.108 09:57:05.700 01/21/00   0
21 $GPGGA,215725.00,3945.0556042,N,10513.3108175,W,4,27,0.7,1762.697,M,-15.952,M,3.0,0000*4B 09:57:05.100 01/21/00 389 0
0   49748.756  49761.681 09:57:04.700 01/21/00   0
21 $GPGGA,215724.00,3945.0555016,N,10513.3104352,W,4,27,0.6,1762.703,M,-15.952,M,2.0,0000*4F 09:57:04.100 01/21/00   5 0
0   49741.027  49754.783 09:57:03.700 01/21/00   0
21 $GPGGA,215723.00,3945.0554169,N,10513.3100773,W,4,28,0.6,1762.719,M,-15.952,M,1.0,0000*44 09:57:03.100 01/21/00 381 0
0   49738.280  49756.748 09:57:02.700 01/21/00   0
21 $GPGGA,215722.00,3945.0553475,N,10513.3097138,W,4,26,0.7,1762.730,M,-15.952,M,2.0,0000*4B 09:57:02.100 01/21/00 382 0
0   49734.620  49760.354 09:57:01.700 01/21/00   0
21 $GPGGA,215721.00,3945.0552735,N,10513.3093570,W,4,28,0.6,1762.728,M,-15.952,M,1.0,0000*47 09:57:01.100 01/21/00 377 0
0   49723.976  49756.637 09:57:00.700 01/21/00   0
21 $GPGGA,215720.00,3945.0551510,N,10513.3089889,W,4,27,0.6,1762.739,M,-15.952,M,2.0,0000*4C 09:57:00.100 01/21/00 380 0
0   49710.826  49746.205 09:56:59.700 01/21/00   0
21 $GPGGA,215719.00,3945.0549581,N,10513.3086479,W,4,28,0.6,1762.726,M,-15.952,M,3.0,0000*4B 09:56:59.100 01/21/00 359 0
0   49680.670  49722.541 09:56:58.700 01/21/00   0
21 $GPGGA,215718.00,3945.0548086,N,10513.3082636,W,4,28,0.6,1762.767,M,-15.952,M,2.0,0000*40 09:56:58.100 01/21/00 379 0
0   49641.134  49696.155 09:56:57.700 01/21/00   0
21 $GPGGA,215717.00,3945.0546964,N,10513.3079656,W,4,27,0.6,1762.759,M,-15.952,M,1.0,0000*47 09:56:57.100 01/21/00  61 0
0   49587.888  49642.643 09:56:56.700 01/21/00   0
21 $GPGGA,215716.00,3945.0545611,N,10513.3076441,W,4,26,0.6,1762.731,M,-15.952,M,2.0,0000*4F 09:56:56.100 01/21/00  85 0
0   49537.766  49586.113 09:56:55.700 01/21/00   0
21 $GPGGA,215715.00,3945.0544465,N,10513.3073361,W,4,26,0.6,1762.762,M,-15.952,M,3.0,0000*4B 09:56:55.100 01/21/00 174 0
0   49480.648  49525.158 09:56:54.700 01/21/00   0
21 $GPGGA,215714.00,3945.0543975,N,10513.3070631,W,4,27,0.6,1762.739,M,-15.952,M,2.0,0000*4C 09:56:54.100 01/21/00  86 0
0   49445.941  49488.985 09:56:53.700 01/21/00   0
21 $GPGGA,215713.00,3945.0543795,N,10513.3067898,W,4,28,0.6,1762.732,M,-15.952,M,3.0,0000*45 09:56:53.100 01/21/00 360 0
0   49435.034  49479.416 09:56:52.700 01/21/00   0
21 $GPGGA,215712.00,3945.0543286,N,10513.3065879,W,4,26,0.6,1762.780,M,-15.952,M,2.0,0000*48 09:56:52.100 01/21/00  90 0
0   49418.671  49468.264 09:56:51.700 01/21/00   0
21 $GPGGA,215711.00,3945.0543205,N,10513.3065358,W,4,26,0.6,1762.772,M,-15.952,M,3.0,0000*44 09:56:51.100 01/21/00 360 0
0   49415.389  49467.506 09:56:50.700 01/21/00   0
21 $GPGGA,215710.00,3945.0543371,N,10513.3065182,W,4,26,0.6,1762.776,M,-15.952,M,2.0,0000*47 09:56:50.100 01/21/00 356 0
0   49412.182  49461.810 09:56:49.700 01/21/00   0
21 $GPGGA,215709.00,3945.0543420,N,10513.3065257,W,4,26,0.6,1762.780,M,-15.952,M,1.0,0000*4D 09:56:49.100 01/21/00 352 0
0   49402.089  49450.104 09:56:48.700 01/21/00   0
21 $GPGGA,215708.00,3945.0543433,N,10513.3065033,W,4,26,0.6,1762.781,M,-15.952,M,2.0,0000*4C 09:56:48.100 01/21/00 352 0
0   49401.937  49452.406 09:56:47.700 01/21/00   0
21 $GPGGA,215707.00,3945.0543451,N,10513.3064775,W,4,26,0.6,1762.777,M,-15.952,M,3.0,0000*4B 09:56:47.100 01/21/00 352 0
6         0.000        0.000 09:56:46.600 01/21/00          0           0           0  36          0
