3         0.000        0.000 10:17:49.400 01/21/00          2           0           6   5
21 $GPGGA,221809.00,3945.0805855,N,10513.3031561,W,4,25,0.6,1759.663,M,-15.953,M,1.0,0000*41 10:17:49.100 01/21/00 323 0
0   49992.282  49919.963 10:17:49.00 01/21/00   0
21 $GPGGA,221808.00,3945.0805857,N,10513.3031360,W,4,25,0.6,1759.661,M,-15.953,M,2.0,0000*44 10:17:48.100 01/21/00 347 0
0   49990.431  49918.024 10:17:48.00 01/21/00   0
3         0.000        0.000 10:17:47.100 01/21/00          6           0           5   4
21 $GPGGA,221807.00,3945.0805771,N,10513.3031341,W,4,27,0.6,1759.674,M,-15.953,M,3.0,0000*44 10:17:47.100 01/21/00 231 0
0   49992.225  49920.670 10:17:47.00 01/21/00   0
21 $GPGGA,221806.00,3945.0805751,N,10513.3031743,W,4,25,0.6,1759.665,M,-15.953,M,2.0,0000*42 10:17:46.100 01/21/00 203 0
0   49991.524  49918.391 10:17:46.00 01/21/00   0
21 $GPGGA,221805.00,3945.0805811,N,10513.3031846,W,4,25,0.6,1759.663,M,-15.953,M,3.0,0000*47 10:17:45.100 01/21/00 235 0
0   49991.857  49917.580 10:17:45.00 01/21/00   0
21 $GPGGA,221804.00,3945.0805816,N,10513.3031780,W,4,25,0.6,1759.667,M,-15.953,M,2.0,0000*41 10:17:44.100 01/21/00 234 0
0   49991.920  49917.764 10:17:44.00 01/21/00   0
21 $GPGGA,221803.00,3945.0805801,N,10513.3031760,W,4,25,0.6,1759.672,M,-15.953,M,3.0,0000*4B 10:17:43.100 01/21/00 231 0
0   49994.272  49922.161 10:17:43.00 01/21/00   0
21 $GPGGA,221802.00,3945.0805801,N,10513.3031756,W,4,24,0.7,1759.658,M,-15.953,M,2.0,0000*46 10:17:42.100 01/21/00 232 0
0   49994.017  49922.264 10:17:42.00 01/21/00   0
3         0.000        0.000 10:17:41.700 01/21/00          8           0           4   4
21 $GPGGA,221801.00,3945.0805763,N,10513.3031871,W,4,24,0.7,1759.665,M,-15.953,M,3.0,0000*4B 10:17:41.100 01/21/00 211 0
0   49989.503  49912.412 10:17:41.00 01/21/00   0
21 $GPGGA,221800.00,3945.0805775,N,10513.3031923,W,4,24,0.7,1759.667,M,-15.953,M,2.0,0000*48 10:17:40.100 01/21/00 226 0
0   49994.801  49923.209 10:17:40.00 01/21/00   0
21 $GPGGA,221759.00,3945.0805263,N,10513.3031340,W,4,24,0.7,1759.689,M,-15.953,M,3.0,0000*47 10:17:39.100 01/21/00 210 0
0   50010.247  49948.320 10:17:39.00 01/21/00   0
21 $GPGGA,221758.00,3945.0805459,N,10513.3030637,W,4,23,0.7,1759.705,M,-15.953,M,2.0,0000*4E 10:17:38.100 01/21/00 215 0
0   49988.815  49911.237 10:17:38.00 01/21/00   0
21 $GPGGA,221757.00,3945.0809035,N,10513.3029244,W,4,22,0.7,1759.613,M,-15.953,M,3.0,0000*4D 10:17:37.100 01/21/00 206 0
0   49962.338  49857.324 10:17:37.00 01/21/00   0
21 $GPGGA,221756.00,3945.0812312,N,10513.3024288,W,4,27,0.6,1759.589,M,-15.953,M,2.0,0000*48 10:17:36.100 01/21/00 213 0
0   48354.952  49842.970 10:17:36.00 01/21/00   0
21 $GPGGA,221755.00,3945.0813988,N,10513.3017735,W,4,26,0.6,1759.694,M,-15.953,M,3.0,0000*4F 10:17:35.100 01/21/00 227 0
0       0.000  50041.133 10:17:35.00 01/21/00   0
21 $GPGGA,221754.00,3945.0812650,N,10513.3013121,W,4,22,0.7,1759.642,M,-15.953,M,2.0,0000*4D 10:17:34.100 01/21/00 249 0
0       0.000  50118.191 10:17:34.00 01/21/00   0
3         0.000        0.000 10:17:33.700 01/21/00          8           0           3   4
21 $GPGGA,221753.00,3945.0808919,N,10513.3009574,W,4,24,0.7,1759.675,M,-15.953,M,3.0,0000*4F 10:17:33.100 01/21/00 211 0
0   49377.913  50123.558 10:17:33.00 01/21/00   0
21 $GPGGA,221752.00,3945.0804814,N,10513.3005628,W,4,26,0.6,1759.699,M,-15.953,M,2.0,0000*48 10:17:32.100 01/21/00 215 0
0   49627.882  50122.233 10:17:32.00 01/21/00   0
21 $GPGGA,221751.00,3945.0800804,N,10513.3001020,W,4,28,0.6,1759.796,M,-15.953,M,3.0,0000*45 10:17:31.100 01/21/00 214 0
0   49908.189  50133.059 10:17:31.00 01/21/00   0
21 $GPGGA,221750.00,3945.0796783,N,10513.2996316,W,4,26,0.6,1759.786,M,-15.953,M,2.0,0000*4A 10:17:30.100 01/21/00 244 0
0   49807.502  50153.626 10:17:30.00 01/21/00   0
21 $GPGGA,221749.00,3945.0792969,N,10513.2991390,W,4,27,0.6,1759.785,M,-15.953,M,1.0,0000*44 10:17:29.100 01/21/00 220 0
0       0.000  50192.863 10:17:29.00 01/21/00   0
21 $GPGGA,221748.00,3945.0789301,N,10513.2986174,W,4,27,0.6,1759.788,M,-15.953,M,2.0,0000*4B 10:17:28.100 01/21/00 238 0
0       0.000  50243.826 10:17:28.00 01/21/00   0
21 $GPGGA,221747.00,3945.0786268,N,10513.2982198,W,4,26,0.7,1759.842,M,-15.953,M,3.0,0000*4B 10:17:27.100 01/21/00 228 0
0       0.000  50270.999 10:17:27.00 01/21/00   0
21 $GPGGA,221746.00,3945.0784417,N,10513.2980713,W,4,26,0.6,1759.876,M,-15.953,M,2.0,0000*46 10:17:26.100 01/21/00 251 0
0       0.000  50288.521 10:17:26.00 01/21/00   0
3         0.000        0.000 10:17:25.500 01/21/00          6           0           2   4
21 $GPGGA,221745.00,3945.0784286,N,10513.2980426,W,4,26,0.6,1759.880,M,-15.953,M,3.0,0000*46 10:17:25.100 01/21/00 240 0
0       0.000  50282.688 10:17:25.00 01/21/00   0
21 $GPGGA,221744.00,3945.0784099,N,10513.2980565,W,4,26,0.6,1759.880,M,-15.953,M,2.0,0000*4C 10:17:24.100 01/21/00 206 0
0   50313.247  50272.676 10:17:24.00 01/21/00   0
21 $GPGGA,221743.00,3945.0784507,N,10513.2980130,W,4,26,0.7,1759.870,M,-15.953,M,3.0,0000*42 10:17:23.100 01/21/00 212 0
0   48822.759  50296.613 10:17:23.00 01/21/00   0
21 $GPGGA,221742.00,3945.0786454,N,10513.2980036,W,4,27,0.6,1759.844,M,-15.953,M,2.0,0000*47 10:17:22.100 01/21/00 207 0
0   50358.860  50326.612 10:17:22.00 01/21/00   0
21 $GPGGA,221741.00,3945.0788378,N,10513.2980899,W,4,27,0.6,1759.818,M,-15.953,M,3.0,0000*46 10:17:21.100 01/21/00 214 0
0   50288.347  50271.990 10:17:21.00 01/21/00   0
21 $GPGGA,221740.00,3945.0789829,N,10513.2982276,W,4,27,0.6,1759.833,M,-15.953,M,2.0,0000*48 10:17:20.100 01/21/00 236 0
0   50285.298  50278.706 10:17:20.00 01/21/00   0
6         0.000        0.000 10:17:19.100 01/21/00         10           0           1   4          0
21 $GPGGA,221739.00,3945.0792526,N,10513.2984404,W,4,27,0.6,1759.847,M,-15.953,M,3.0,0000*49 10:17:19.100 01/21/00 235 0
0   50292.111  50282.763 10:17:19.00 01/21/00   0
21 $GPGGA,221738.00,3945.0795784,N,10513.2986747,W,4,24,0.8,1759.773,M,-15.953,M,2.0,0000*47 10:17:18.100 01/21/00 242 0
0   50295.401  50288.372 10:17:18.00 01/21/00   0
21 $GPGGA,221737.00,3945.0798009,N,10513.2989001,W,4,23,0.7,1759.780,M,-15.953,M,3.0,0000*48 10:17:17.100 01/21/00 226 0
0   50293.878  50286.402 10:17:17.00 01/21/00   0
21 $GPGGA,221736.00,3945.0801434,N,10513.2992258,W,4,26,0.6,1759.731,M,-15.953,M,2.0,0000*47 10:17:16.100 01/21/00 234 0
0   50278.388  50263.090 10:17:16.00 01/21/00   0
21 $GPGGA,221735.00,3945.0805890,N,10513.2996276,W,4,23,0.7,1759.706,M,-15.953,M,3.0,0000*4B 10:17:15.100 01/21/00 294 0
0   50253.863  50236.320 10:17:15.00 01/21/00   0
21 $GPGGA,221734.00,3945.0810244,N,10513.2999733,W,4,23,0.7,1759.620,M,-15.953,M,2.0,0000*42 10:17:14.100 01/21/00  39 0
0   50237.155  50221.089 10:17:14.00 01/21/00   0
21 $GPGGA,221733.00,3945.0814245,N,10513.3003621,W,4,25,0.7,1759.681,M,-15.953,M,3.0,0000*45 10:17:13.100 01/21/00 286 0
0   50222.957  50212.147 10:17:13.00 01/21/00   0
21 $GPGGA,221732.00,3945.0817523,N,10513.3005977,W,4,23,0.7,1759.639,M,-15.953,M,2.0,0000*4E 10:17:12.100 01/21/00 291 0
0   50221.288  50214.037 10:17:12.00 01/21/00   0
21 $GPGGA,221731.00,3945.0818266,N,10513.3006811,W,4,22,0.7,1759.611,M,-15.953,M,3.0,0000*4C 10:17:11.100 01/21/00 281 0
0   50217.019  50211.803 10:17:11.00 01/21/00   0
21 $GPGGA,221730.00,3945.0819568,N,10513.3007573,W,4,23,0.7,1759.579,M,-15.953,M,2.0,0000*40 10:17:10.100 01/21/00 298 0
0   50218.788  50212.882 10:17:10.00 01/21/00   0
21 $GPGGA,221729.00,3945.0819656,N,10513.3007873,W,4,24,0.7,1759.585,M,-15.953,M,1.0,0000*4C 10:17:09.100 01/21/00 734 0
6         0.000        0.000 10:17:08.800 01/21/00          0           0           0  36          0
